站号,站名,省名,纬度,经度,海拔高度,日照时数,日期
50136,漠河,黑龙江,52.9667,122.5167,433,7.50,2017/1/29 0:00:00
50137,北极村,黑龙江,53.4667,122.3667,296,6.70,2017/1/29 0:00:00
50246,塔河,黑龙江,52.35,124.7167,361.90,7.20,2017/1/29 0:00:00
50247,呼中,黑龙江,52.0333,123.5667,514.50,6.40,2017/1/29 0:00:00
50349,新林,黑龙江,51.6667,124.40,501.50,7.70,2017/1/29 0:00:00
50353,呼玛,黑龙江,51.7333,126.6333,173.90,7.40,2017/1/29 0:00:00
50425,额尔古纳市,内蒙古,50.25,120.1833,581.40,7.40,2017/1/29 0:00:00
50431,根河市,内蒙古,50.7833,121.5167,717,7.30,2017/1/29 0:00:00
50434,图里河,内蒙古,50.4833,121.6833,732.60,7.90,2017/1/29 0:00:00
50442,加格达奇,黑龙江,50.40,124.1167,371.70,8,2017/1/29 0:00:00
50445,鄂伦春自治旗,内蒙古,50.5833,123.7333,423.70,7.50,2017/1/29 0:00:00
50468,爱辉,黑龙江,50.25,127.45,166.40,7.30,2017/1/29 0:00:00
50514,满洲里,内蒙古,49.5833,117.3167,661.80,8.30,2017/1/29 0:00:00
50524,陈巴尔虎旗,内蒙古,49.3167,119.4333,576.60,7.50,2017/1/29 0:00:00
50525,鄂温克族自治旗,内蒙古,49.15,119.75,620.80,7.80,2017/1/29 0:00:00
50526,牙克石市,内蒙古,49.2833,120.70,668.80,7.50,2017/1/29 0:00:00
50527,海拉尔,内蒙古,49.25,119.70,649.60,7.30,2017/1/29 0:00:00
50548,小二沟,内蒙古,49.20,123.7167,286.10,7.30,2017/1/29 0:00:00
50557,嫩江,黑龙江,49.1667,125.2333,242.20,8.10,2017/1/29 0:00:00
50564,孙吴,黑龙江,49.4333,127.35,234.50,6.80,2017/1/29 0:00:00
50566,逊克,黑龙江,49.55,128.4667,116,7.70,2017/1/29 0:00:00
50603,新巴尔虎右旗,内蒙古,48.6667,116.8167,554.20,7.70,2017/1/29 0:00:00
50618,新巴尔虎左旗,内蒙古,48.2167,118.2667,642,6.80,2017/1/29 0:00:00
50632,博克图,内蒙古,48.7667,121.9167,739.70,8.10,2017/1/29 0:00:00
50639,扎兰屯,内蒙古,48,122.7333,306.50,7.60,2017/1/29 0:00:00
50645,莫力达瓦达斡尔族自治旗,内蒙古,48.4833,124.4833,195,8,2017/1/29 0:00:00
50646,讷河,黑龙江,48.4833,124.85,202.80,7.60,2017/1/29 0:00:00
50647,阿荣旗,内蒙古,48.1333,123.4833,236.20,7.60,2017/1/29 0:00:00
50655,五大连池,黑龙江,48.50,126.1833,266.80,7.70,2017/1/29 0:00:00
50656,北安,黑龙江,48.2667,126.50,277.10,7.60,2017/1/29 0:00:00
50658,克山,黑龙江,48.05,125.8833,236,7.80,2017/1/29 0:00:00
50659,克东,黑龙江,48.0333,126.25,291.80,8.30,2017/1/29 0:00:00
50673,嘉荫,黑龙江,48.8833,130.40,90.40,8.80,2017/1/29 0:00:00
50674,乌伊岭,黑龙江,48.5667,129.4333,404.50,7.20,2017/1/29 0:00:00
50727,阿尔山,内蒙古,47.1667,119.9333,997.20,7.60,2017/1/29 0:00:00
50739,龙江,黑龙江,47.3333,123.1833,190,8.40,2017/1/29 0:00:00
50741,甘南,黑龙江,47.9333,123.50,185.20,8.70,2017/1/29 0:00:00
50742,富裕,黑龙江,47.80,124.4833,162.70,7.60,2017/1/29 0:00:00
50745,齐齐哈尔,黑龙江,47.3833,123.9167,147.10,8.60,2017/1/29 0:00:00
50749,林甸,黑龙江,47.1833,124.8333,154.60,7.60,2017/1/29 0:00:00
50750,依安,黑龙江,47.90,125.30,226.40,8.10,2017/1/29 0:00:00
50755,拜泉,黑龙江,47.60,126.10,230.70,7.90,2017/1/29 0:00:00
50756,海伦,黑龙江,47.45,126.9667,239.20,6.50,2017/1/29 0:00:00
50758,明水,黑龙江,47.1833,125.90,246,6.70,2017/1/29 0:00:00
50767,绥棱,黑龙江,47.2333,127.10,202.70,8.10,2017/1/29 0:00:00
50772,五营,黑龙江,48.10,129.2333,288,7.70,2017/1/29 0:00:00
50774,伊春,黑龙江,47.70,128.8333,264.80,7.70,2017/1/29 0:00:00
50775,鹤岗,黑龙江,47.3333,130.2667,227.90,7.60,2017/1/29 0:00:00
50776,萝北,黑龙江,47.5667,130.8333,83.30,8.10,2017/1/29 0:00:00
50778,同江,黑龙江,47.6667,132.5333,57.50,7.80,2017/1/29 0:00:00
50779,抚远,黑龙江,48.3667,134.2833,40,7.70,2017/1/29 0:00:00
50787,绥滨,黑龙江,47.2833,131.85,61.80,8.50,2017/1/29 0:00:00
50788,富锦,黑龙江,47.2333,131.9833,66.40,8.20,2017/1/29 0:00:00
50832,胡尔勒,内蒙古,46.7167,122.0833,332.60,8.40,2017/1/29 0:00:00
50833,扎赉特旗,内蒙古,46.7167,122.90,187.80,7.70,2017/1/29 0:00:00
50834,索伦,内蒙古,46.60,121.2167,499.70,8.10,2017/1/29 0:00:00
50838,乌兰浩特,内蒙古,46.0833,122.05,274.70,8.20,2017/1/29 0:00:00
50842,杜蒙,黑龙江,46.8333,124.4167,145.40,6.20,2017/1/29 0:00:00
50844,泰来,黑龙江,46.40,123.45,138.80,7.70,2017/1/29 0:00:00
50850,大庆,黑龙江,46.5667,125.1333,147.20,7.50,2017/1/29 0:00:00
50851,青冈,黑龙江,46.6833,126.0833,207.40,8.20,2017/1/29 0:00:00
50852,望奎,黑龙江,46.8333,126.45,169.10,6.80,2017/1/29 0:00:00
50853,北林,黑龙江,46.6167,126.9667,179.60,6.80,2017/1/29 0:00:00
50854,安达,黑龙江,46.3833,125.3167,149.30,7.30,2017/1/29 0:00:00
50858,肇东,黑龙江,46.0667,125.9333,135,8.10,2017/1/29 0:00:00
50859,兰西,黑龙江,46.25,126.2667,159.10,7,2017/1/29 0:00:00
50861,庆安,黑龙江,46.8833,127.4833,184.80,8.10,2017/1/29 0:00:00
50862,铁力,黑龙江,46.9833,127.9833,206,7.80,2017/1/29 0:00:00
50867,巴彦,黑龙江,46.0833,127.35,134.10,8.80,2017/1/29 0:00:00
50871,汤原,黑龙江,46.7333,129.8833,95.10,8,2017/1/29 0:00:00
50873,佳木斯,黑龙江,46.7833,130.30,82,8,2017/1/29 0:00:00
50877,依兰,黑龙江,46.30,129.5833,100.10,4.10,2017/1/29 0:00:00
50878,桦川,黑龙江,47,130.7167,78.20,6.90,2017/1/29 0:00:00
50879,桦南,黑龙江,46.2167,130.55,187,7.70,2017/1/29 0:00:00
50880,集贤,黑龙江,46.7333,131.1167,102.30,0,2017/1/29 0:00:00
50884,双鸭山,黑龙江,46.6333,131.15,175.30,7.60,2017/1/29 0:00:00
50888,宝清,黑龙江,46.3167,132.1833,83,7.80,2017/1/29 0:00:00
50892,饶河,黑龙江,46.80,134,54.40,8,2017/1/29 0:00:00
50913,乌拉盖,内蒙古,45.7167,118.8333,865,8.60,2017/1/29 0:00:00
50915,东乌珠穆沁,内蒙古,45.5167,116.9667,838.70,8.20,2017/1/29 0:00:00
50924,霍林郭勒,内蒙古,45.5333,119.6667,823.70,7.60,2017/1/29 0:00:00
50928,巴雅尔吐胡硕,内蒙古,45.0667,120.3333,628.30,8.80,2017/1/29 0:00:00
50934,突泉,内蒙古,45.3833,121.5833,311.70,8.40,2017/1/29 0:00:00
50936,白城,吉林,45.6333,122.8333,155.30,8.60,2017/1/29 0:00:00
50937,科尔沁右翼中旗,内蒙古,45.05,121.4667,249.90,8.70,2017/1/29 0:00:00
50939,洮南,吉林,45.3333,122.8167,150.80,8.20,2017/1/29 0:00:00
50940,镇赉,吉林,45.85,123.1667,141.10,8.10,2017/1/29 0:00:00
50945,大安,吉林,45.50,124.2667,137.60,6.60,2017/1/29 0:00:00
50946,松原,吉林,45.1833,124.8333,139.80,7.40,2017/1/29 0:00:00
50948,乾安,吉林,45,124.0167,146.30,6.90,2017/1/29 0:00:00
50949,前郭,吉林,45.0833,124.8667,136.20,6.60,2017/1/29 0:00:00
50950,肇州,黑龙江,45.70,125.25,148.70,7.80,2017/1/29 0:00:00
50953,哈尔滨,黑龙江,45.9333,126.5667,118.30,6.90,2017/1/29 0:00:00
50954,肇源,黑龙江,45.50,125.0833,127.50,7.50,2017/1/29 0:00:00
50955,双城,黑龙江,45.3833,126.30,166.40,8.20,2017/1/29 0:00:00
50956,呼兰,黑龙江,46.0833,126.7667,134.50,6.70,2017/1/29 0:00:00
50958,阿城,黑龙江,45.5167,126.95,174.30,7.80,2017/1/29 0:00:00
50960,宾县,黑龙江,45.7833,127.45,192.20,8.30,2017/1/29 0:00:00
50962,木兰,黑龙江,45.95,128.0333,112.10,6.10,2017/1/29 0:00:00
50963,通河,黑龙江,45.9667,128.7333,108.60,8.20,2017/1/29 0:00:00
50964,方正,黑龙江,45.8333,128.80,119.30,6.60,2017/1/29 0:00:00
50965,延寿,黑龙江,45.45,128.2833,155.30,7,2017/1/29 0:00:00
50968,尚志,黑龙江,45.2167,127.9667,189.70,6.20,2017/1/29 0:00:00
50971,七台河,黑龙江,45.7667,131.0167,223.50,0,2017/1/29 0:00:00
50973,勃利,黑龙江,45.75,130.60,234.40,2.10,2017/1/29 0:00:00
50978,鸡西,黑龙江,45.30,130.9167,272.50,6.80,2017/1/29 0:00:00
50979,林口,黑龙江,45.2667,130.2333,274.70,6.30,2017/1/29 0:00:00
50983,虎林,黑龙江,45.7667,132.9667,100.20,8.20,2017/1/29 0:00:00
50985,密山,黑龙江,45.55,131.8667,151.70,6.90,2017/1/29 0:00:00
50987,鸡东,黑龙江,45.2667,131.10,219.90,5.70,2017/1/29 0:00:00
51053,哈巴河,新疆,48.05,86.40,532.60,7.70,2017/1/29 0:00:00
51058,阿克达拉,新疆,47.10,87.9667,563.30,7.70,2017/1/29 0:00:00
51059,吉木乃,新疆,47.4333,85.8667,984.10,7.50,2017/1/29 0:00:00
51060,布尔津,新疆,47.70,86.8667,473.90,7.20,2017/1/29 0:00:00
51068,福海,新疆,47.1167,87.4667,500.90,6.20,2017/1/29 0:00:00
51076,阿勒泰,新疆,47.7333,88.0833,735.30,7.70,2017/1/29 0:00:00
51087,富蕴,新疆,46.9833,89.5167,807.50,7.10,2017/1/29 0:00:00
51133,塔城,新疆,46.7333,83,534.90,6.40,2017/1/29 0:00:00
51137,裕民,新疆,46.20,82.9333,715.40,6.80,2017/1/29 0:00:00
51145,额敏,新疆,46.55,83.65,521.60,7.60,2017/1/29 0:00:00
51156,和布克赛尔,新疆,46.7833,85.7167,1291.60,7.60,2017/1/29 0:00:00
51186,青河,新疆,46.6667,90.3833,1218.20,7.90,2017/1/29 0:00:00
51232,阿拉山口,新疆,45.1833,82.5667,336.10,6.30,2017/1/29 0:00:00
51238,博乐,新疆,44.90,82.0667,531.90,6.80,2017/1/29 0:00:00
51241,托里,新疆,45.9333,83.60,1077.80,8.20,2017/1/29 0:00:00
51243,克拉玛依,新疆,45.6167,84.85,449.50,6.60,2017/1/29 0:00:00
51288,北塔山,新疆,45.3667,90.5333,1653.70,7.50,2017/1/29 0:00:00
51328,霍尔果斯,新疆,44.20,80.4167,770.90,5.70,2017/1/29 0:00:00
51329,霍城,新疆,44.05,80.85,640,6.10,2017/1/29 0:00:00
51330,温泉,新疆,44.9667,81.0167,1357.80,7.90,2017/1/29 0:00:00
51334,精河,新疆,44.60,82.90,318.60,5.70,2017/1/29 0:00:00
51346,乌苏,新疆,44.4333,84.6667,478.70,5.10,2017/1/29 0:00:00
51352,炮台,新疆,44.85,85.25,337.10,5.20,2017/1/29 0:00:00
51353,莫索湾,新疆,45.0167,86.10,346,5.50,2017/1/29 0:00:00
51356,石河子,新疆,44.3167,86.05,442.90,4.50,2017/1/29 0:00:00
51357,沙湾,新疆,44.3333,85.6167,522.20,4.30,2017/1/29 0:00:00
51358,乌兰乌苏,新疆,44.2833,85.8167,468.50,6.70,2017/1/29 0:00:00
51359,玛纳斯,新疆,44.3167,86.20,471.40,2.70,2017/1/29 0:00:00
51365,蔡家湖,新疆,44.20,87.5333,440.50,2.20,2017/1/29 0:00:00
51367,呼图壁,新疆,44.1333,86.8167,522.10,5.60,2017/1/29 0:00:00
51368,昌吉,新疆,44.1167,87.3167,515.70,4.90,2017/1/29 0:00:00
51369,米泉,新疆,43.9667,87.65,600.30,2.10,2017/1/29 0:00:00
51377,阜康,新疆,44.1667,87.9167,547,0,2017/1/29 0:00:00
51378,吉木萨尔,新疆,44.0167,89.1667,734.90,0,2017/1/29 0:00:00
51379,奇台,新疆,44.0167,89.5667,793.50,4.50,2017/1/29 0:00:00
51430,察布查尔,新疆,43.8333,81.15,602.60,0,2017/1/29 0:00:00
51431,伊宁,新疆,43.95,81.3333,662.50,3.30,2017/1/29 0:00:00
51433,尼勒克,新疆,43.80,82.5167,1105.30,0.50,2017/1/29 0:00:00
51434,伊宁县,新疆,43.9667,81.5333,770,0,2017/1/29 0:00:00
51435,巩留,新疆,43.4667,82.2333,774.90,0.60,2017/1/29 0:00:00
51436,新源,新疆,43.45,83.30,928.20,1.70,2017/1/29 0:00:00
51437,昭苏,新疆,43.15,81.1333,1851,2,2017/1/29 0:00:00
51438,特克斯,新疆,43.1833,81.7667,1210.40,0,2017/1/29 0:00:00
51463,乌鲁木齐,新疆,43.7833,87.65,935,6.20,2017/1/29 0:00:00
51465,小渠子,新疆,43.4833,87.10,1871.80,4.20,2017/1/29 0:00:00
51467,巴仑台,新疆,42.7667,86.3333,1732.40,4.70,2017/1/29 0:00:00
51469,乌鲁木齐牧试站,新疆,43.45,87.1833,1930,5.60,2017/1/29 0:00:00
51470,天池,新疆,43.8833,88.1167,1942.50,6.70,2017/1/29 0:00:00
51477,达坂城,新疆,43.35,88.3167,1103.50,6.10,2017/1/29 0:00:00
51482,木垒,新疆,43.8333,90.2833,1271.50,6.10,2017/1/29 0:00:00
51495,十三间房,新疆,43.2167,91.7333,721.40,5.80,2017/1/29 0:00:00
51526,库米什,新疆,42.2333,88.2167,922.40,0,2017/1/29 0:00:00
51542,巴音布鲁克,新疆,43.0333,84.15,2458,4.60,2017/1/29 0:00:00
51559,和静,新疆,42.3167,86.40,1100.90,2.80,2017/1/29 0:00:00
51567,焉耆,新疆,42.0833,86.5667,1055.30,3,2017/1/29 0:00:00
51568,和硕,新疆,42.25,86.80,1085.40,2.30,2017/1/29 0:00:00
51571,托克逊,新疆,42.80,88.6333,1,1.60,2017/1/29 0:00:00
51572,吐鲁番东坎,新疆,42.8333,89.25,-48.70,5.80,2017/1/29 0:00:00
51573,吐鲁番,新疆,42.9333,89.20,34.50,4.10,2017/1/29 0:00:00
51581,鄯善,新疆,42.85,90.2333,398.60,5.90,2017/1/29 0:00:00
51627,乌什,新疆,41.2167,79.2333,1395.80,4.10,2017/1/29 0:00:00
51628,阿克苏,新疆,41.1667,80.2333,1103.80,3.60,2017/1/29 0:00:00
51629,温宿,新疆,41.2667,80.2333,1132.70,3.60,2017/1/29 0:00:00
51633,拜城,新疆,41.7833,81.90,1229.20,5.50,2017/1/29 0:00:00
51636,新和,新疆,41.55,82.65,1009.80,2.50,2017/1/29 0:00:00
51639,沙雅,新疆,41.2333,82.7833,980.40,3.50,2017/1/29 0:00:00
51642,轮台,新疆,41.8167,84.2667,982,3.40,2017/1/29 0:00:00
51644,库车,新疆,41.7167,82.9667,1081.90,5.70,2017/1/29 0:00:00
51655,尉犁,新疆,41.35,86.2667,884.90,3.20,2017/1/29 0:00:00
51656,库尔勒,新疆,41.75,86.1333,931.50,5.40,2017/1/29 0:00:00
51704,阿图什,新疆,39.7167,76.1667,1298.70,1,2017/1/29 0:00:00
51705,乌恰,新疆,39.7167,75.25,2175.70,1.50,2017/1/29 0:00:00
51707,伽师,新疆,39.50,76.7333,1208.60,5.90,2017/1/29 0:00:00
51708,阿克陶,新疆,39.15,75.95,1325.10,6.40,2017/1/29 0:00:00
51709,喀什,新疆,39.4667,75.9833,1289.40,6.20,2017/1/29 0:00:00
51711,阿合奇,新疆,40.9333,78.45,1985.10,4.70,2017/1/29 0:00:00
51716,巴楚,新疆,39.80,78.5667,1116.50,2.50,2017/1/29 0:00:00
51717,岳普湖,新疆,39.25,76.7833,1206.30,6.50,2017/1/29 0:00:00
51720,柯坪,新疆,40.50,79.05,1161.80,0.40,2017/1/29 0:00:00
51722,阿瓦提,新疆,40.65,80.40,1044.30,1.30,2017/1/29 0:00:00
51730,阿拉尔,新疆,40.55,81.2667,1012.20,3.60,2017/1/29 0:00:00
51747,塔中,新疆,39,83.6667,1099.30,3.60,2017/1/29 0:00:00
51765,铁干里克,新疆,40.6333,87.70,846,4.50,2017/1/29 0:00:00
51777,若羌,新疆,39.0333,88.1667,887.70,5.60,2017/1/29 0:00:00
51802,英吉沙,新疆,38.9333,76.1667,1297.50,5.90,2017/1/29 0:00:00
51804,塔什库尔干,新疆,37.7667,75.2333,3090.10,4.20,2017/1/29 0:00:00
51810,麦盖提,新疆,38.9167,77.6333,1178.20,7.60,2017/1/29 0:00:00
51811,莎车,新疆,38.4333,77.2667,1231.20,7.10,2017/1/29 0:00:00
51814,叶城,新疆,37.9167,77.40,1360.40,7.80,2017/1/29 0:00:00
51815,泽普,新疆,38.20,77.2667,1274.70,8.10,2017/1/29 0:00:00
51818,皮山,新疆,37.6167,78.2833,1375.40,6.50,2017/1/29 0:00:00
51826,策勒,新疆,37.0167,80.80,1336.50,4.60,2017/1/29 0:00:00
51827,墨玉,新疆,37.2833,79.7167,1326,5.70,2017/1/29 0:00:00
51828,和田,新疆,37.1333,79.9333,1375,5.90,2017/1/29 0:00:00
51829,洛浦,新疆,37.0833,80.1667,1347.90,4.80,2017/1/29 0:00:00
51839,民丰,新疆,37.0667,82.7167,1409.50,3.50,2017/1/29 0:00:00
51855,且末,新疆,38.15,85.55,1247.20,5.50,2017/1/29 0:00:00
51886,茫崖,青海,38.25,90.85,2944.80,6.50,2017/1/29 0:00:00
51931,于田,新疆,36.85,81.65,1422,6.80,2017/1/29 0:00:00
52101,巴里坤,新疆,43.60,93.05,1677.20,4.90,2017/1/29 0:00:00
52112,淖毛湖,新疆,43.7667,95.1333,479,6.30,2017/1/29 0:00:00
52118,伊吾,新疆,43.2667,94.70,1728.60,6.20,2017/1/29 0:00:00
52203,哈密,新疆,42.8167,93.5167,737.20,6.80,2017/1/29 0:00:00
52267,额济纳旗,内蒙古,41.95,101.0667,940.50,8.50,2017/1/29 0:00:00
52313,红柳河,新疆,41.5333,94.6667,1573.80,6.30,2017/1/29 0:00:00
52323,马鬃山,甘肃,41.80,97.0333,1770.40,6.40,2017/1/29 0:00:00
52418,敦煌,甘肃,40.15,94.6833,1139,6.40,2017/1/29 0:00:00
52424,瓜州,甘肃,40.5333,95.7833,1170.90,6.80,2017/1/29 0:00:00
52436,玉门镇,甘肃,40.2667,97.0333,1526,5.30,2017/1/29 0:00:00
52446,鼎新,甘肃,40.30,99.5167,1177.40,8.70,2017/1/29 0:00:00
52447,金塔,甘肃,40,98.8833,1270.50,6.90,2017/1/29 0:00:00
52495,巴彦诺尔公,内蒙古,40.1667,104.80,1323.90,8.80,2017/1/29 0:00:00
52515,肃北,甘肃,39.5167,94.8667,2137.20,6.60,2017/1/29 0:00:00
52533,酒泉,甘肃,39.7667,98.4833,1477.20,6.50,2017/1/29 0:00:00
52546,高台,甘肃,39.3667,99.8333,1332.20,8,2017/1/29 0:00:00
52557,临泽,甘肃,39.15,100.1667,1453.70,8.70,2017/1/29 0:00:00
52575,雅布赖,内蒙古,39.4167,102.7833,1239.50,8.60,2017/1/29 0:00:00
52576,阿右旗,内蒙古,39.2167,101.6833,1510.10,8.80,2017/1/29 0:00:00
52602,冷湖,青海,38.75,93.3333,2770,6.10,2017/1/29 0:00:00
52607,乌斯太,内蒙古,39.4333,106.65,1252.60,8.10,2017/1/29 0:00:00
52633,托勒,青海,38.8167,98.4167,3367,8.70,2017/1/29 0:00:00
52643,肃南,甘肃,38.8333,99.6167,2311.80,8.80,2017/1/29 0:00:00
52645,野牛沟,青海,38.4167,99.5833,3320,6.30,2017/1/29 0:00:00
52652,张掖,甘肃,39.0833,100.2833,1461.10,7.80,2017/1/29 0:00:00
52656,民乐,甘肃,38.4333,100.8167,2281.40,7.90,2017/1/29 0:00:00
52657,祁连,青海,38.1833,100.25,2787.40,9,2017/1/29 0:00:00
52661,山丹,甘肃,38.80,101.0833,1765.50,7.20,2017/1/29 0:00:00
52674,永昌,甘肃,38.2333,101.9667,1976.90,7.80,2017/1/29 0:00:00
52679,武威,甘肃,37.9167,102.6667,1531.50,8.60,2017/1/29 0:00:00
52681,民勤,甘肃,38.6333,103.0833,1367.50,8.30,2017/1/29 0:00:00
52707,小灶火,青海,36.80,93.6833,2767,7.40,2017/1/29 0:00:00
52713,大柴旦,青海,37.85,95.35,3173.20,8,2017/1/29 0:00:00
52737,德令哈,青海,37.3667,97.3833,2981.50,8.40,2017/1/29 0:00:00
52745,天峻,青海,37.30,99.0167,3417.10,8.70,2017/1/29 0:00:00
52754,刚察,青海,37.3333,100.1333,3301.50,8.70,2017/1/29 0:00:00
52765,门源,青海,37.3833,101.6167,2850,8.80,2017/1/29 0:00:00
52784,古浪,甘肃,37.4667,102.90,2072.40,8,2017/1/29 0:00:00
52787,乌鞘岭,甘肃,37.20,102.8667,3045.10,9,2017/1/29 0:00:00
52797,景泰,甘肃,37.1833,104.05,1630.90,8.50,2017/1/29 0:00:00
52818,格尔木,青海,36.4167,94.9167,2807.60,6.30,2017/1/29 0:00:00
52825,诺木洪,青海,36.4333,96.4333,2790.40,8,2017/1/29 0:00:00
52833,乌兰,青海,36.9333,98.4833,2950,7.80,2017/1/29 0:00:00
52836,都兰,青海,36.30,98.10,3189,8.20,2017/1/29 0:00:00
52842,茶卡,青海,36.7833,99.0833,3087.60,8.30,2017/1/29 0:00:00
52853,海晏,青海,36.90,100.9833,3010,7.40,2017/1/29 0:00:00
52855,湟源,青海,36.6833,101.25,2675,8.40,2017/1/29 0:00:00
52856,共和,青海,36.2667,100.6167,2835,7.70,2017/1/29 0:00:00
52862,大通,青海,36.95,101.6833,2450,7.30,2017/1/29 0:00:00
52863,互助,青海,36.8167,101.95,2480,8.40,2017/1/29 0:00:00
52866,西宁,青海,36.7333,101.75,2295.20,7.60,2017/1/29 0:00:00
52868,贵德,青海,36.0333,101.4333,2237.10,8.30,2017/1/29 0:00:00
52869,湟中,青海,36.50,101.5833,2667.50,8.20,2017/1/29 0:00:00
52874,乐都,青海,36.4833,102.40,1980.90,8.20,2017/1/29 0:00:00
52875,平安,青海,36.50,102.10,2125,8,2017/1/29 0:00:00
52876,民和,青海,36.3333,102.8333,1813.90,7.60,2017/1/29 0:00:00
52877,化隆,青海,36.10,102.25,2834.70,8.10,2017/1/29 0:00:00
52881,天祝,甘肃,36.9833,103.1833,2484.80,9.10,2017/1/29 0:00:00
52884,皋兰,甘肃,36.35,103.95,1668.50,8.80,2017/1/29 0:00:00
52885,永登,甘肃,36.75,103.25,2118.80,8.40,2017/1/29 0:00:00
52889,兰州,甘肃,36.05,103.8833,1517.20,7.30,2017/1/29 0:00:00
52895,靖远,甘肃,36.5667,104.6833,1398.20,9,2017/1/29 0:00:00
52896,白银,甘肃,36.55,104.15,1738.70,6.60,2017/1/29 0:00:00
52908,五道梁,青海,35.2167,93.0833,4612.20,6.90,2017/1/29 0:00:00
52943,兴海,青海,35.5833,99.9833,3323.20,7.40,2017/1/29 0:00:00
52955,贵南,青海,35.5833,100.7333,3120,8.10,2017/1/29 0:00:00
52957,同德,青海,35.25,100.60,3148.20,8.30,2017/1/29 0:00:00
52963,尖扎,青海,35.9333,102.0167,2085.70,8.60,2017/1/29 0:00:00
52968,泽库,青海,35.0333,101.4667,3662.80,7.90,2017/1/29 0:00:00
52972,循化,青海,35.85,102.45,1921,8.20,2017/1/29 0:00:00
52974,同仁,青海,35.5167,102.0167,2491.40,8,2017/1/29 0:00:00
52978,夏河,甘肃,35.20,102.5167,2929.40,8.50,2017/1/29 0:00:00
52980,永靖,甘肃,35.9667,103.30,1648,7.80,2017/1/29 0:00:00
52981,东乡,甘肃,35.6833,103.3833,2421,8.80,2017/1/29 0:00:00
52982,广河,甘肃,35.4833,103.55,1953.20,7.80,2017/1/29 0:00:00
52983,榆中,甘肃,35.8667,104.15,1874.40,8.50,2017/1/29 0:00:00
52984,临夏,甘肃,35.5833,103.1833,1917.20,8.10,2017/1/29 0:00:00
52985,和政,甘肃,35.4167,103.3333,2162.80,7.80,2017/1/29 0:00:00
52986,临洮,甘肃,35.3667,103.8667,1893.80,8.80,2017/1/29 0:00:00
52988,康乐,甘肃,35.3667,103.7167,2015.80,7.80,2017/1/29 0:00:00
52993,会宁,甘肃,35.6833,105.0667,1739.40,8.30,2017/1/29 0:00:00
52995,安定,甘肃,35.5833,104.6167,1897.20,8.60,2017/1/29 0:00:00
52996,华家岭,甘肃,35.3833,105.0167,2450.60,9.30,2017/1/29 0:00:00
52998,渭源,甘肃,35.1333,104.20,2111,8.60,2017/1/29 0:00:00
53068,二连浩特,内蒙古,43.6333,111.9333,963.10,8.70,2017/1/29 0:00:00
53083,那仁宝力格,内蒙古,44.6167,114.15,1181.60,8.40,2017/1/29 0:00:00
53149,满都拉气象站,内蒙古,42.5333,110.1333,1225.20,8.60,2017/1/29 0:00:00
53192,阿巴嘎旗,内蒙古,44.0167,114.95,1126.10,8.70,2017/1/29 0:00:00
53195,苏尼特左旗,内蒙古,43.85,113.6333,1036.70,8.90,2017/1/29 0:00:00
53231,海力素,内蒙古,41.40,106.40,1509.60,8.80,2017/1/29 0:00:00
53272,苏尼特右旗,内蒙古,42.75,112.6333,1104.90,8.10,2017/1/29 0:00:00
53276,朱日和,内蒙古,42.40,112.90,1150.80,7.30,2017/1/29 0:00:00
53289,镶黄旗,内蒙古,42.2333,113.8333,1322.10,7,2017/1/29 0:00:00
53324,乌拉特后旗,内蒙古,41.0667,107.05,1035.30,9,2017/1/29 0:00:00
53336,乌拉特中旗,内蒙古,41.5667,108.5167,1288,8.20,2017/1/29 0:00:00
53337,五原,内蒙古,41.10,108.2667,1023.70,7.20,2017/1/29 0:00:00
53343,白云鄂博,内蒙古,41.7667,109.9667,1612.20,6.60,2017/1/29 0:00:00
53348,大佘太,内蒙古,41.0167,109.1333,1078.70,7.70,2017/1/29 0:00:00
53352,达茂旗气象局,内蒙古,41.70,110.4333,1376.60,7,2017/1/29 0:00:00
53357,固阳县气象局,内蒙古,41.0333,110.05,1360.40,5.40,2017/1/29 0:00:00
53362,四子王,内蒙古,41.5333,111.6833,1490.10,6.90,2017/1/29 0:00:00
53367,希拉穆仁,内蒙古,41.3167,111.2333,1602.30,8.60,2017/1/29 0:00:00
53368,武川县,内蒙古,41.0833,111.4667,1637.30,8,2017/1/29 0:00:00
53378,察右中旗,内蒙古,41.2833,112.6167,1737.30,7,2017/1/29 0:00:00
53384,察右后旗,内蒙古,41.45,113.1833,1423.50,7.70,2017/1/29 0:00:00
53385,商都,内蒙古,41.5667,113.55,1385.20,7.20,2017/1/29 0:00:00
53391,化德,内蒙古,41.90,114,1482.70,7.30,2017/1/29 0:00:00
53392,康保,河北,41.85,114.60,1422.40,7.70,2017/1/29 0:00:00
53397,尚义,河北,41.10,113.9833,1376.50,7.20,2017/1/29 0:00:00
53399,张北,河北,41.15,114.70,1393.30,4.70,2017/1/29 0:00:00
53419,磴口,内蒙古,40.3333,107,1055.30,8.50,2017/1/29 0:00:00
53420,杭锦后旗,内蒙古,40.85,107.1167,1024,8.60,2017/1/29 0:00:00
53433,乌拉特前旗,内蒙古,40.7333,108.65,1020.40,8,2017/1/29 0:00:00
53446,包头市,内蒙古,40.5333,109.8833,1004.70,8.50,2017/1/29 0:00:00
53455,土右旗气象局,内蒙古,40.55,110.5333,998.60,6.60,2017/1/29 0:00:00
53457,达拉特旗,内蒙古,40.40,110.0333,1011,7.80,2017/1/29 0:00:00
53463,呼和浩特,内蒙古,40.85,111.5667,1153.50,8.30,2017/1/29 0:00:00
53464,土默特左旗,内蒙古,40.7167,111.1667,1042.70,8.70,2017/1/29 0:00:00
53466,呼和浩特郊区站,内蒙古,40.75,111.70,1045.40,7.90,2017/1/29 0:00:00
53467,托克托县,内蒙古,40.2667,111.1833,1016,9.40,2017/1/29 0:00:00
53469,和林格尔县,内蒙古,40.40,111.8167,1166.70,8.90,2017/1/29 0:00:00
53472,卓资,内蒙古,40.8667,112.5667,1451.70,7.50,2017/1/29 0:00:00
53475,凉城,内蒙古,40.5167,112.4667,1268.90,5.70,2017/1/29 0:00:00
53478,右玉,山西,40,112.45,1345.80,5.50,2017/1/29 0:00:00
53480,集宁,内蒙古,41.0333,113.0667,1419.30,5.70,2017/1/29 0:00:00
53481,察右前旗,内蒙古,40.80,113.2167,1316.80,7.90,2017/1/29 0:00:00
53483,兴和,内蒙古,40.8667,113.8333,1268.70,7.80,2017/1/29 0:00:00
53484,丰镇,内蒙古,40.45,113.15,1191.50,7.30,2017/1/29 0:00:00
53486,阳高,山西,40.3667,113.7667,1050.30,7.40,2017/1/29 0:00:00
53487,大同,山西,40.0833,113.4167,1052.60,8.10,2017/1/29 0:00:00
53488,大同县,山西,40.0333,113.5833,1034.30,8.10,2017/1/29 0:00:00
53490,天镇,山西,40.4333,114.05,1014.70,7,2017/1/29 0:00:00
53491,怀安,河北,40.6667,114.3833,837.70,8,2017/1/29 0:00:00
53492,阳原,河北,40.10,114.15,937.60,7.40,2017/1/29 0:00:00
53498,宣化,河北,40.5667,115.0333,629.30,5.80,2017/1/29 0:00:00
53499,万全,河北,40.7667,114.7333,755.20,8.30,2017/1/29 0:00:00
53502,吉兰太,内蒙古,39.7833,105.75,1031.80,9,2017/1/29 0:00:00
53505,孪井滩,内蒙古,37.8833,105.40,1380.70,8.30,2017/1/29 0:00:00
53512,乌海,内蒙古,39.80,106.80,1105.60,7.20,2017/1/29 0:00:00
53513,临河,内蒙古,40.7333,107.3667,1041.10,8.70,2017/1/29 0:00:00
53517,石炭井,宁夏,39.2667,106.3333,1464.50,8.30,2017/1/29 0:00:00
53518,石嘴山,宁夏,39.0333,106.35,1117.70,8.10,2017/1/29 0:00:00
53519,惠农,宁夏,39.2167,106.7667,1092.50,7.30,2017/1/29 0:00:00
53522,伊克乌素,内蒙古,40.05,107.8333,1180.30,7.60,2017/1/29 0:00:00
53529,鄂托克旗,内蒙古,39.0833,107.9667,1381.40,7.70,2017/1/29 0:00:00
53533,杭锦旗,内蒙古,39.85,108.7333,1389.50,4.20,2017/1/29 0:00:00
53543,东胜,内蒙古,39.8333,109.9833,1461.90,5.90,2017/1/29 0:00:00
53545,伊金霍洛旗,内蒙古,39.5667,109.7167,1367,5.30,2017/1/29 0:00:00
53547,乌审召,内蒙古,39.10,109.0333,1312.20,6.30,2017/1/29 0:00:00
53553,准格尔旗,内蒙古,39.8667,111.2167,1221.40,8.30,2017/1/29 0:00:00
53562,清水河县,内蒙古,39.9167,111.6667,1187.40,8.40,2017/1/29 0:00:00
53564,河曲,山西,39.3833,111.15,861.50,5.40,2017/1/29 0:00:00
53565,偏关,山西,39.4333,111.50,1051.70,0,2017/1/29 0:00:00
53567,府谷,陕西,39.0333,111.0833,981,6.50,2017/1/29 0:00:00
53573,左云,山西,40,112.70,1336.30,6.70,2017/1/29 0:00:00
53574,平鲁,山西,39.5167,112.2667,1409.40,4.20,2017/1/29 0:00:00
53575,神池,山西,39.10,112.20,1525.40,3.20,2017/1/29 0:00:00
53576,山阴,山西,39.50,112.8167,1045,7.10,2017/1/29 0:00:00
53577,宁武,山西,39,112.30,1437.40,5.40,2017/1/29 0:00:00
53578,朔州,山西,39.3667,112.4333,1114.80,2.90,2017/1/29 0:00:00
53579,代县,山西,39.0167,112.90,859.70,5,2017/1/29 0:00:00
53580,怀仁,山西,39.8167,113.10,1044.60,7,2017/1/29 0:00:00
53582,浑源,山西,39.7167,113.6667,1079.20,5.70,2017/1/29 0:00:00
53584,应县,山西,39.5667,113.1667,1000.70,5.20,2017/1/29 0:00:00
53585,繁峙,山西,39.1667,113.2667,933.90,1,2017/1/29 0:00:00
53588,五台山,山西,38.95,113.5167,2208.30,2,2017/1/29 0:00:00
53590,广灵,山西,39.75,114.2667,977.80,6.50,2017/1/29 0:00:00
53593,蔚县,河北,39.8333,114.5667,909.50,6.50,2017/1/29 0:00:00
53594,灵丘,山西,39.45,114.1833,938.70,8,2017/1/29 0:00:00
53596,顺平,河北,38.85,115.1333,52.20,6.90,2017/1/29 0:00:00
53599,涞源,河北,39.3667,114.6833,884.40,7.90,2017/1/29 0:00:00
53602,阿拉善左旗,内蒙古,38.8333,105.6667,1561.40,8.30,2017/1/29 0:00:00
53603,沙湖,宁夏,38.8333,106.3667,1095,6.30,2017/1/29 0:00:00
53610,贺兰,宁夏,38.5667,106.35,1106.20,5,2017/1/29 0:00:00
53611,平罗,宁夏,38.8833,106.55,1098.70,6.90,2017/1/29 0:00:00
53612,吴忠,宁夏,37.9833,106.1833,1128.80,8.10,2017/1/29 0:00:00
53614,银川,宁夏,38.4667,106.20,1110.90,7.50,2017/1/29 0:00:00
53615,陶乐,宁夏,38.80,106.70,1101.60,8,2017/1/29 0:00:00
53617,青铜峡,宁夏,38.0333,106.0833,1118,8.20,2017/1/29 0:00:00
53618,永宁,宁夏,38.2833,106.25,1113.70,8,2017/1/29 0:00:00
53619,灵武,宁夏,38.1167,106.30,1115.90,8.40,2017/1/29 0:00:00
53644,乌审旗,内蒙古,38.60,108.8333,1307.20,8.10,2017/1/29 0:00:00
53646,榆林,陕西,38.2667,109.7833,1157,7.50,2017/1/29 0:00:00
53651,神木,陕西,38.8167,110.4667,1098,9.20,2017/1/29 0:00:00
53658,佳县,陕西,38.0333,110.4833,894.40,3.60,2017/1/29 0:00:00
53659,临县,山西,37.9667,111,1163.30,3.10,2017/1/29 0:00:00
53660,保德,山西,39.0167,111.0833,894.40,2,2017/1/29 0:00:00
53662,岢岚,山西,38.7167,111.5833,1396.70,3.90,2017/1/29 0:00:00
53663,五寨,山西,38.9167,111.8167,1401,3.60,2017/1/29 0:00:00
53664,兴县,山西,38.4667,111.1333,1012.60,3.60,2017/1/29 0:00:00
53665,岚县,山西,38.2833,111.65,1185.10,3.20,2017/1/29 0:00:00
53666,静乐,山西,38.35,111.9333,1212.20,4.10,2017/1/29 0:00:00
53669,娄烦,山西,38.0833,111.80,1150.30,4.10,2017/1/29 0:00:00
53673,原平,山西,38.7333,112.7167,828.20,1.40,2017/1/29 0:00:00
53674,忻府区,山西,38.40,112.70,869.90,0,2017/1/29 0:00:00
53676,定襄,山西,38.50,112.9833,759.40,3.50,2017/1/29 0:00:00
53677,太原北郊,山西,37.9333,112.4833,806.50,3.90,2017/1/29 0:00:00
53678,阳曲,山西,38.0667,112.65,897.10,2.30,2017/1/29 0:00:00
53679,太原南郊,山西,37.7333,112.55,775.40,8.10,2017/1/29 0:00:00
53680,灵寿,河北,38.30,114.3833,108.90,5.10,2017/1/29 0:00:00
53681,五台县豆村,山西,38.8333,113.3667,1096.20,6.40,2017/1/29 0:00:00
53682,曲阳,河北,38.6333,114.6833,104.10,7.10,2017/1/29 0:00:00
53685,盂县,山西,38.0667,113.4167,953.20,1.30,2017/1/29 0:00:00
53687,平定,山西,37.7833,113.6333,753,7.40,2017/1/29 0:00:00
53688,行唐,河北,38.4167,114.55,100.30,6,2017/1/29 0:00:00
53689,晋州,河北,38.0167,115.0667,42.40,0,2017/1/29 0:00:00
53690,阜平,河北,38.85,114.1833,281.90,8.40,2017/1/29 0:00:00
53691,正定,河北,38.15,114.5667,71,6.20,2017/1/29 0:00:00
53692,唐县,河北,38.7333,114.9833,66.50,0,2017/1/29 0:00:00
53693,井陉,河北,38.0333,114.1333,255.50,0,2017/1/29 0:00:00
53694,平山,河北,38.2667,114.2167,131,4.10,2017/1/29 0:00:00
53695,新乐,河北,38.35,114.6833,70.80,5.10,2017/1/29 0:00:00
53696,定州,河北,38.5167,115,54.80,3,2017/1/29 0:00:00
53697,藁城,河北,38.0333,114.8333,53.50,5.20,2017/1/29 0:00:00
53698,石家庄,河北,38.0667,114.35,103.60,0,2017/1/29 0:00:00
53699,无极,河北,38.1833,114.95,45.40,0,2017/1/29 0:00:00
53704,中卫,宁夏,37.5333,105.1833,1225.70,7.60,2017/1/29 0:00:00
53705,中宁,宁夏,37.4833,105.6833,1183.40,8.40,2017/1/29 0:00:00
53707,兴仁,宁夏,36.9333,105.25,1697.90,8.40,2017/1/29 0:00:00
53723,盐池,宁夏,37.80,107.3833,1349.30,7.10,2017/1/29 0:00:00
53725,定边,陕西,37.5833,107.5833,1360.30,8.20,2017/1/29 0:00:00
53727,麻黄山,宁夏,37.1667,107.1167,1712.50,8.90,2017/1/29 0:00:00
53730,鄂托克前旗,内蒙古,38.1833,107.4833,1333.30,7.70,2017/1/29 0:00:00
53732,河南,内蒙古,37.85,108.7167,1209.90,5.60,2017/1/29 0:00:00
53735,靖边,陕西,37.6167,108.80,1336.70,6.20,2017/1/29 0:00:00
53738,吴旗,陕西,36.9167,108.1667,1331.40,9.20,2017/1/29 0:00:00
53740,横山,陕西,37.9333,109.2333,1111,6.80,2017/1/29 0:00:00
53748,子长,陕西,37.1833,109.70,1063.30,8.60,2017/1/29 0:00:00
53750,米脂,陕西,37.7667,110.1833,931,8.90,2017/1/29 0:00:00
53751,子洲,陕西,37.60,110.05,894.60,8.50,2017/1/29 0:00:00
53753,柳林,山西,37.4333,110.8833,860.10,4.50,2017/1/29 0:00:00
53754,绥德,陕西,37.50,110.2167,929.70,9.30,2017/1/29 0:00:00
53756,吴堡,陕西,37.5167,110.7167,744,7.80,2017/1/29 0:00:00
53757,清涧,陕西,37.1167,110.1167,938,8.90,2017/1/29 0:00:00
53759,石楼,山西,36.9833,110.8333,1109.10,8,2017/1/29 0:00:00
53760,方山,山西,37.8833,111.2333,1212.40,6.90,2017/1/29 0:00:00
53763,太原古交区,山西,37.9167,112.1667,1006.80,7.30,2017/1/29 0:00:00
53764,离石,山西,37.50,111.10,950.80,8.80,2017/1/29 0:00:00
53767,中阳,山西,37.3333,111.1667,1213.10,6.60,2017/1/29 0:00:00
53768,孝义,山西,37.15,111.75,773.40,4.30,2017/1/29 0:00:00
53769,汾阳,山西,37.25,111.7833,747.70,2.40,2017/1/29 0:00:00
53770,祁县,山西,37.35,112.35,768.80,7.40,2017/1/29 0:00:00
53771,文水,山西,37.4167,112.05,750,4.50,2017/1/29 0:00:00
53772,太原,山西,37.6167,112.5833,776.30,7.70,2017/1/29 0:00:00
53773,临漳,河北,36.3333,114.6167,64.60,0,2017/1/29 0:00:00
53774,清徐,山西,37.6167,112.3333,773.70,8.20,2017/1/29 0:00:00
53775,太谷,山西,37.4333,112.5333,781.90,8.50,2017/1/29 0:00:00
53776,榆次,山西,37.6833,112.7667,831.20,6.20,2017/1/29 0:00:00
53777,交城,山西,37.5333,112.15,759.30,6.50,2017/1/29 0:00:00
53778,平遥,山西,37.1667,112.2167,780.30,7.40,2017/1/29 0:00:00
53780,寿阳,山西,37.90,113.15,1066.10,5.40,2017/1/29 0:00:00
53781,沙河,河北,36.8667,114.4667,67.90,4.70,2017/1/29 0:00:00
53782,阳泉,山西,37.9333,113.6167,767.20,5.70,2017/1/29 0:00:00
53783,昔阳,山西,37.60,113.70,876.20,5.60,2017/1/29 0:00:00
53784,赵县,河北,37.75,114.7833,38.50,0,2017/1/29 0:00:00
53785,柏乡,河北,37.5167,114.6667,35,3.50,2017/1/29 0:00:00
53786,左权,山西,37.0833,113.3667,1134.60,8.10,2017/1/29 0:00:00
53788,和顺,山西,37.3333,113.5667,1265.70,7.50,2017/1/29 0:00:00
53789,栾城,河北,37.8833,114.6333,52.90,0,2017/1/29 0:00:00
53790,高邑,河北,37.60,114.6167,48.90,3.60,2017/1/29 0:00:00
53791,元氏,河北,37.7667,114.5167,66.40,0,2017/1/29 0:00:00
53792,临城,河北,37.45,114.4833,113,0,2017/1/29 0:00:00
53794,隆尧,河北,37.35,114.75,33.10,0,2017/1/29 0:00:00
53795,赞皇,河北,37.65,114.3667,137.40,0,2017/1/29 0:00:00
53796,宁晋,河北,37.6167,114.8833,30.60,0,2017/1/29 0:00:00
53797,内邱,河北,37.2833,114.5167,73.90,0,2017/1/29 0:00:00
53798,邢台,河北,37.0667,114.50,77.30,1.40,2017/1/29 0:00:00
53799,巨鹿,河北,37.2333,114.9833,25.90,5.50,2017/1/29 0:00:00
53806,海原,宁夏,36.5667,105.65,1854.20,8.80,2017/1/29 0:00:00
53810,同心,宁夏,36.9667,105.90,1339.30,8.60,2017/1/29 0:00:00
53817,固原,宁夏,36,106.2667,1753,8.50,2017/1/29 0:00:00
53821,环县,甘肃,36.5667,107.30,1255.60,8.50,2017/1/29 0:00:00
53829,庆城,甘肃,35.9833,107.90,1093.70,8.70,2017/1/29 0:00:00
53832,志丹,陕西,36.7667,108.7667,1218.80,8,2017/1/29 0:00:00
53841,安塞,陕西,36.8833,109.3167,1068.30,7.40,2017/1/29 0:00:00
53845,延安,陕西,36.5833,109.45,1180.50,9.10,2017/1/29 0:00:00
53848,甘泉,陕西,36.2667,109.35,1005.50,8.50,2017/1/29 0:00:00
53850,延川,陕西,36.8833,110.1833,804.90,8.40,2017/1/29 0:00:00
53852,永和,山西,36.7667,110.6333,916.60,8.30,2017/1/29 0:00:00
53853,隰县,山西,36.70,110.95,1052.70,6,2017/1/29 0:00:00
53854,延长,陕西,36.5833,110.0667,804.80,8.60,2017/1/29 0:00:00
53856,大宁,山西,36.4667,110.75,765.90,3.50,2017/1/29 0:00:00
53857,宜川,陕西,36.0667,110.1833,840.30,8.40,2017/1/29 0:00:00
53859,吉县,山西,36.10,110.6667,851.30,4.70,2017/1/29 0:00:00
53860,交口,山西,36.9833,111.1667,1406.70,7.30,2017/1/29 0:00:00
53861,襄汾,山西,35.8833,111.3833,463.50,7.20,2017/1/29 0:00:00
53862,灵石,山西,36.85,111.80,811.70,7.80,2017/1/29 0:00:00
53863,介休,山西,37.0333,111.9167,743.90,8.50,2017/1/29 0:00:00
53864,蒲县,山西,36.40,111.10,1030.60,5.40,2017/1/29 0:00:00
53865,汾西,山西,36.65,111.55,1011.90,4.50,2017/1/29 0:00:00
53866,洪洞,山西,36.2333,111.6667,462.80,3.90,2017/1/29 0:00:00
53868,临汾,山西,36.0667,111.50,449.50,6.40,2017/1/29 0:00:00
53869,霍州,山西,36.5833,111.70,550,6.50,2017/1/29 0:00:00
53871,武乡,山西,36.8333,112.85,964.10,8,2017/1/29 0:00:00
53872,沁县,山西,36.7667,112.6833,960.70,6.70,2017/1/29 0:00:00
53873,长子,山西,36.10,112.8667,951.10,6.90,2017/1/29 0:00:00
53874,古县,山西,36.25,111.90,648.70,6.10,2017/1/29 0:00:00
53875,沁源,山西,36.5167,112.35,1000,6.20,2017/1/29 0:00:00
53877,安泽,山西,36.1667,112.25,860.10,5.60,2017/1/29 0:00:00
53878,黎城,山西,36.5167,113.3833,767.90,0,2017/1/29 0:00:00
53879,屯留,山西,36.3167,112.8833,952.30,1.30,2017/1/29 0:00:00
53880,潞城,山西,36.3333,113.2333,947.60,4.70,2017/1/29 0:00:00
53881,韦州,宁夏,37.2833,106.4833,1382.20,8.30,2017/1/29 0:00:00
53882,长治,山西,36.05,113.0667,991.80,6.10,2017/1/29 0:00:00
53883,任县,河北,37.1333,114.70,36.50,1.30,2017/1/29 0:00:00
53884,襄垣,山西,36.5167,113.0333,877.90,7.90,2017/1/29 0:00:00
53885,壶关,山西,36.1167,113.20,1122,7.20,2017/1/29 0:00:00
53886,涉县,河北,36.5667,113.6667,470.40,1.60,2017/1/29 0:00:00
53888,平顺,山西,36.20,113.4333,1089.20,5.90,2017/1/29 0:00:00
53889,林州,河南,36.0667,113.8167,306.80,0,2017/1/29 0:00:00
53890,武安,河北,36.6667,114.10,280.10,4.90,2017/1/29 0:00:00
53891,南和,河北,37.0167,114.6833,43,5.40,2017/1/29 0:00:00
53892,邯郸,河北,36.6167,114.4667,66.60,6.10,2017/1/29 0:00:00
53893,曲周,河北,36.7667,114.95,39.60,3.70,2017/1/29 0:00:00
53894,峰峰,河北,36.40,114.20,149.30,0,2017/1/29 0:00:00
53895,永年,河北,36.7833,114.50,60.60,5.40,2017/1/29 0:00:00
53896,魏县,河北,36.35,114.95,50.10,4.40,2017/1/29 0:00:00
53897,磁县,河北,36.3833,114.3833,69.70,5,2017/1/29 0:00:00
53898,安阳,河南,36.05,114.40,62.90,0,2017/1/29 0:00:00
53899,广平,河北,36.4833,114.9667,48.50,5,2017/1/29 0:00:00
53903,西吉,宁夏,35.9667,105.7167,1916.50,7.90,2017/1/29 0:00:00
53906,静宁,甘肃,35.5167,105.7167,1656.40,7.50,2017/1/29 0:00:00
53908,通渭,甘肃,35.2167,105.2333,1768.20,8.60,2017/1/29 0:00:00
53910,六盘山,宁夏,35.6667,106.20,2841.20,8.50,2017/1/29 0:00:00
53914,隆德,宁夏,35.6167,106.1167,2078.60,8.60,2017/1/29 0:00:00
53915,崆峒,甘肃,35.55,106.6667,1346.60,8.40,2017/1/29 0:00:00
53916,泾源,宁夏,35.50,106.3167,1948.60,7,2017/1/29 0:00:00
53917,庄浪,甘肃,35.2167,106.0667,1631,7.40,2017/1/29 0:00:00
53923,西峰,甘肃,35.7333,107.6333,1421,8.80,2017/1/29 0:00:00
53924,灵台,甘肃,35.0667,107.6167,966.60,7.90,2017/1/29 0:00:00
53925,镇原,甘肃,35.6833,107.1833,1172.50,8.30,2017/1/29 0:00:00
53926,泾川,甘肃,35.35,107.35,1028.80,3.40,2017/1/29 0:00:00
53927,华亭,甘肃,35.20,106.6167,1477.60,8.10,2017/1/29 0:00:00
53928,崇信,甘肃,35.30,107.0167,1149.10,8.60,2017/1/29 0:00:00
53929,长武,陕西,35.20,107.80,1206.50,8.90,2017/1/29 0:00:00
53930,华池,甘肃,36.45,107.9833,1271,8.60,2017/1/29 0:00:00
53931,富县,陕西,36,109.3667,984,8.40,2017/1/29 0:00:00
53934,合水,甘肃,35.7833,107.9833,1274.20,8.60,2017/1/29 0:00:00
53935,正宁,甘肃,35.4833,108.40,1481.90,8.10,2017/1/29 0:00:00
53937,宁县,甘肃,35.5167,107.9167,979.40,9.30,2017/1/29 0:00:00
53938,旬邑,陕西,35.1667,108.30,1277,8.70,2017/1/29 0:00:00
53941,白水,陕西,35.1833,109.5833,804.40,9.20,2017/1/29 0:00:00
53942,洛川,陕西,35.7667,109.4167,1155.90,9.30,2017/1/29 0:00:00
53944,黄陵,陕西,35.5667,109.25,863,8.70,2017/1/29 0:00:00
53945,宜君,陕西,35.4333,109.0667,1395.20,9.30,2017/1/29 0:00:00
53946,黄龙,陕西,35.60,109.8167,1091,8.50,2017/1/29 0:00:00
53947,铜川,陕西,35.0833,109.0667,978.90,8.20,2017/1/29 0:00:00
53948,蒲城,陕西,34.95,109.5833,499.20,8.90,2017/1/29 0:00:00
53949,澄城,陕西,35.1833,109.9167,679.10,9.10,2017/1/29 0:00:00
53950,合阳,陕西,35.2333,110.15,708.80,5.90,2017/1/29 0:00:00
53953,乡宁,山西,35.9667,110.85,965.30,8.10,2017/1/29 0:00:00
53954,稷山,山西,35.6167,110.9667,433.50,7.80,2017/1/29 0:00:00
53955,韩城,陕西,35.4667,110.45,458.10,8.10,2017/1/29 0:00:00
53956,万荣,山西,35.40,110.8333,588.40,7.80,2017/1/29 0:00:00
53957,河津,山西,35.6167,110.7167,459.20,8,2017/1/29 0:00:00
53958,临猗,山西,35.1333,110.7833,387.90,6.50,2017/1/29 0:00:00
53959,运城,山西,35.05,111.05,365,7.30,2017/1/29 0:00:00
53961,曲沃,山西,35.65,111.4833,472.60,7.10,2017/1/29 0:00:00
53962,翼城,山西,35.7333,111.70,584.50,7.50,2017/1/29 0:00:00
53963,侯马,山西,35.65,111.3667,433.80,7.30,2017/1/29 0:00:00
53964,新绛,山西,35.6167,111.2167,430.80,7.50,2017/1/29 0:00:00
53965,绛县,山西,35.5167,111.5667,761,5.90,2017/1/29 0:00:00
53966,浮山,山西,35.9833,111.8333,817.20,7.10,2017/1/29 0:00:00
53967,闻喜,山西,35.3333,111.20,468.30,7.10,2017/1/29 0:00:00
53968,垣曲,山西,35.2833,111.6667,505,6.50,2017/1/29 0:00:00
53970,沁水,山西,35.70,112.20,887.30,7.40,2017/1/29 0:00:00
53972,沁阳,河南,35.1167,112.9167,119.60,0,2017/1/29 0:00:00
53973,高平,山西,35.7667,112.95,837.30,7.40,2017/1/29 0:00:00
53974,淇县,河南,35.6167,114.1833,72.30,0,2017/1/29 0:00:00
53975,阳城,山西,35.4833,112.40,659.50,5.80,2017/1/29 0:00:00
53976,晋城,山西,35.50,112.8667,752.60,3.40,2017/1/29 0:00:00
53978,济源,河南,35.0833,112.6333,140.10,0,2017/1/29 0:00:00
53979,博爱,河南,35.15,113.0833,120,0,2017/1/29 0:00:00
53980,肥乡,河北,36.55,114.80,50.20,0,2017/1/29 0:00:00
53981,陵川,山西,35.7833,113.2667,1311.60,6.50,2017/1/29 0:00:00
53982,焦作,河南,35.2333,113.2667,112,0,2017/1/29 0:00:00
53983,封丘,河南,35.0333,114.4167,69.60,0,2017/1/29 0:00:00
53984,修武,河南,35.2333,113.4667,82.70,3.10,2017/1/29 0:00:00
53985,辉县,河南,35.50,113.8167,140.70,0,2017/1/29 0:00:00
53986,新乡,河南,35.3167,113.8833,73.20,0,2017/1/29 0:00:00
53987,武陟,河南,35.10,113.4167,91,0,2017/1/29 0:00:00
53988,获嘉,河南,35.2667,113.6667,77.60,0,2017/1/29 0:00:00
53989,原阳,河南,35.05,113.95,76.60,0,2017/1/29 0:00:00
53991,汤阴,河南,35.9167,114.3333,93,0,2017/1/29 0:00:00
53992,浚县,河南,35.65,114.5167,58.20,0,2017/1/29 0:00:00
53993,内黄,河南,35.9333,114.9167,51.60,1.20,2017/1/29 0:00:00
53994,卫辉,河南,35.3833,114.0667,70,0,2017/1/29 0:00:00
53995,滑县,河南,35.55,114.50,62.50,0,2017/1/29 0:00:00
53996,成安,河北,36.45,114.65,57.90,2.50,2017/1/29 0:00:00
53997,延津,河南,35.15,114.1833,71.10,0,2017/1/29 0:00:00
53998,长垣,河南,35.20,114.65,61.60,0,2017/1/29 0:00:00
54012,西乌珠穆沁,内蒙古,44.5833,117.60,1001.70,6.80,2017/1/29 0:00:00
54024,富河,内蒙古,44.45,119.30,710,8.30,2017/1/29 0:00:00
54026,扎鲁特,内蒙古,44.5667,120.90,265,8.20,2017/1/29 0:00:00
54027,巴林左旗,内蒙古,43.9833,119.40,486.20,7.90,2017/1/29 0:00:00
54031,高力板,内蒙古,44.90,121.8167,198.30,7.80,2017/1/29 0:00:00
54039,舍伯吐,内蒙古,44.0333,122.0167,181.60,7.80,2017/1/29 0:00:00
54041,通榆,吉林,44.80,123.0667,150,7.30,2017/1/29 0:00:00
54047,科左中旗,内蒙古,44.1333,123.2833,145.80,7.20,2017/1/29 0:00:00
54049,长岭,吉林,44.25,123.9667,188.90,6.50,2017/1/29 0:00:00
54063,扶余,吉林,44.9667,126,196.80,5.60,2017/1/29 0:00:00
54064,农安,吉林,44.3833,125.15,170.20,3.60,2017/1/29 0:00:00
54065,德惠,吉林,44.5333,125.65,169.10,1.80,2017/1/29 0:00:00
54069,九台,吉林,44.1667,125.80,174.50,0,2017/1/29 0:00:00
54072,榆树,吉林,44.85,126.5167,196.50,5.60,2017/1/29 0:00:00
54076,舒兰,吉林,44.3833,126.9333,268.10,0,2017/1/29 0:00:00
54080,五常,黑龙江,44.90,127.15,194.60,0,2017/1/29 0:00:00
54092,海林,黑龙江,44.60,129.40,292.10,0,2017/1/29 0:00:00
54093,穆棱,黑龙江,44.9333,130.55,266.30,0,2017/1/29 0:00:00
54094,牡丹江,黑龙江,44.5667,129.60,241.40,0,2017/1/29 0:00:00
54096,绥芬河,黑龙江,44.3833,131.1667,567.80,0,2017/1/29 0:00:00
54098,宁安,黑龙江,44.3333,129.4667,267.90,0,2017/1/29 0:00:00
54099,东宁,黑龙江,44.0833,131.1333,148.60,0,2017/1/29 0:00:00
54102,锡林浩特,内蒙古,43.95,116.1167,1003,7.50,2017/1/29 0:00:00
54113,巴林右旗,内蒙古,43.5333,118.65,621.40,8.50,2017/1/29 0:00:00
54115,林西县,内蒙古,43.6333,118.0333,825,8.50,2017/1/29 0:00:00
54117,克什克腾旗,内蒙古,43.25,117.5333,1003.30,8.60,2017/1/29 0:00:00
54122,阿鲁科尔沁旗,内蒙古,43.8833,120.05,374.90,8.70,2017/1/29 0:00:00
54132,青龙山,内蒙古,42.40,121.0667,400,8.10,2017/1/29 0:00:00
54134,开鲁,内蒙古,43.60,121.2833,241,7.80,2017/1/29 0:00:00
54135,通辽,内蒙古,43.60,122.2667,178.70,6.90,2017/1/29 0:00:00
54142,双辽,吉林,43.50,123.5333,114.90,7.40,2017/1/29 0:00:00
54154,梨树,吉林,43.35,124.30,160.20,4.80,2017/1/29 0:00:00
54155,孤家子,吉林,43.6667,124.2333,144.20,5,2017/1/29 0:00:00
54156,公主岭,吉林,43.5167,124.80,200.40,3.50,2017/1/29 0:00:00
54157,四平,吉林,43.1667,124.3333,165.70,2.30,2017/1/29 0:00:00
54161,长春,吉林,43.90,125.2167,236.80,2.60,2017/1/29 0:00:00
54164,伊通,吉林,43.35,125.2833,248.10,0,2017/1/29 0:00:00
54165,双阳,吉林,43.55,125.6333,219.50,3.10,2017/1/29 0:00:00
54169,烟筒山,吉林,43.30,126.0167,271.60,0,2017/1/29 0:00:00
54171,永吉,吉林,43.70,126.5167,229.50,0,2017/1/29 0:00:00
54172,吉林城郊,吉林,43.8667,126.5333,290.30,0.80,2017/1/29 0:00:00
54181,蛟河,吉林,43.70,127.3333,295,0,2017/1/29 0:00:00
54186,敦化,吉林,43.3667,128.20,524.90,0,2017/1/29 0:00:00
54187,安图,吉林,43.1167,128.9167,366.60,0,2017/1/29 0:00:00
54192,罗子沟,吉林,43.70,130.2667,384.60,0,2017/1/29 0:00:00
54195,汪清,吉林,43.30,129.7833,244.80,0,2017/1/29 0:00:00
54204,正镶白旗,内蒙古,42.30,115,1346.30,7.50,2017/1/29 0:00:00
54205,正蓝旗,内蒙古,42.2333,116,1315.50,7.60,2017/1/29 0:00:00
54208,多伦县,内蒙古,42.1833,116.4667,1245.40,7.90,2017/1/29 0:00:00
54213,翁牛特旗,内蒙古,42.9333,119.0167,634.30,7.30,2017/1/29 0:00:00
54214,岗子,内蒙古,42.5833,118.4167,960,7.70,2017/1/29 0:00:00
54218,赤峰,内蒙古,42.30,118.8333,668.60,2.50,2017/1/29 0:00:00
54223,奈曼,内蒙古,42.85,120.65,362.90,5.70,2017/1/29 0:00:00
54225,敖汉旗,内蒙古,42.2833,119.9167,588.20,6.30,2017/1/29 0:00:00
54226,宝国吐,内蒙古,42.3333,120.70,400.50,8.50,2017/1/29 0:00:00
54231,科左后旗,内蒙古,42.9667,122.35,248.10,3.70,2017/1/29 0:00:00
54234,库伦,内蒙古,42.7333,121.75,297.80,8,2017/1/29 0:00:00
54236,彰武,辽宁,42.3833,122.55,79.40,5.10,2017/1/29 0:00:00
54237,阜新,辽宁,42.0667,121.75,167.80,8.30,2017/1/29 0:00:00
54243,昌图,辽宁,42.7833,124.1167,165.10,3,2017/1/29 0:00:00
54244,康平,辽宁,42.75,123.3333,118.60,3.60,2017/1/29 0:00:00
54245,法库,辽宁,42.50,123.40,97.80,2.90,2017/1/29 0:00:00
54248,新城子,辽宁,42.0333,123.5333,61.60,0,2017/1/29 0:00:00
54249,铁岭,辽宁,42.30,123.8667,85.40,3,2017/1/29 0:00:00
54252,西丰,辽宁,42.7333,124.75,196.10,0,2017/1/29 0:00:00
54254,开原,辽宁,42.5333,124.05,98.20,1.50,2017/1/29 0:00:00
54259,清原,辽宁,42.10,124.9167,237.20,0,2017/1/29 0:00:00
54260,辽源,吉林,42.9167,125.0833,252.90,0,2017/1/29 0:00:00
54261,东丰,吉林,42.6667,125.4667,345.30,0,2017/1/29 0:00:00
54263,磐石,吉林,42.9667,126.05,336.70,0,2017/1/29 0:00:00
54266,梅河口,吉林,42.5333,125.6333,340.50,0,2017/1/29 0:00:00
54267,柳河,吉林,42.25,125.7333,362.30,0,2017/1/29 0:00:00
54273,桦甸,吉林,42.9833,126.75,263.30,0,2017/1/29 0:00:00
54274,辉南,吉林,42.6833,125.9833,306.70,0,2017/1/29 0:00:00
54276,靖宇,吉林,42.40,126.80,570,0,2017/1/29 0:00:00
54279,江源,吉林,42.05,126.5833,544.40,0,2017/1/29 0:00:00
54284,东岗,吉林,42.15,127.50,774.20,1,2017/1/29 0:00:00
54285,二道,吉林,42.4167,128.1167,721.40,0,2017/1/29 0:00:00
54286,和龙,吉林,42.5333,129,475.60,2.20,2017/1/29 0:00:00
54290,龙井,吉林,42.7667,129.40,241.10,0,2017/1/29 0:00:00
54291,珲春,吉林,42.90,130.2833,36.50,0,2017/1/29 0:00:00
54292,延吉,吉林,42.8667,129.50,257.30,0.40,2017/1/29 0:00:00
54293,图们,吉林,42.95,129.8333,142.80,0,2017/1/29 0:00:00
54301,沽源,河北,41.6667,115.6667,1412,7.80,2017/1/29 0:00:00
54304,崇礼,河北,40.95,115.2667,1239.80,5.40,2017/1/29 0:00:00
54305,太仆寺旗,内蒙古,41.8833,115.2667,1468.90,6.10,2017/1/29 0:00:00
54308,丰宁,河北,41.20,116.6333,735.10,4.80,2017/1/29 0:00:00
54311,围场,河北,41.9667,117.7667,892.70,5.50,2017/1/29 0:00:00
54313,喀喇沁旗,内蒙古,41.9333,118.70,733.70,0,2017/1/29 0:00:00
54316,八里罕,内蒙古,41.5167,118.75,679.30,8.30,2017/1/29 0:00:00
54318,隆化,河北,41.3167,117.7333,561.60,4.20,2017/1/29 0:00:00
54319,平泉,河北,41,118.6667,502.30,7.60,2017/1/29 0:00:00
54320,宁城县,内蒙古,41.60,119.30,544.20,8,2017/1/29 0:00:00
54321,建平镇,辽宁,41.8667,119.6333,661.80,6,2017/1/29 0:00:00
54323,北票,辽宁,41.8167,120.7833,253.80,8.30,2017/1/29 0:00:00
54324,朝阳,辽宁,41.55,120.4333,174.30,7.60,2017/1/29 0:00:00
54325,羊山,辽宁,41.1833,120.35,183.80,5.10,2017/1/29 0:00:00
54326,建平县,辽宁,41.3833,119.70,422,6.70,2017/1/29 0:00:00
54327,凌源,辽宁,41.2333,119.35,417.10,7.70,2017/1/29 0:00:00
54328,喀左,辽宁,41.0833,119.7167,296.80,7,2017/1/29 0:00:00
54330,凌海,辽宁,41.1333,121.3333,45.20,6.80,2017/1/29 0:00:00
54331,北镇,辽宁,41.5833,121.7667,77.10,7.20,2017/1/29 0:00:00
54332,辽中,辽宁,41.5167,122.7167,12.20,1.80,2017/1/29 0:00:00
54333,新民,辽宁,41.9667,122.85,30.90,2.70,2017/1/29 0:00:00
54334,义县,辽宁,41.5167,121.25,74.20,8.40,2017/1/29 0:00:00
54335,黑山,辽宁,41.6833,122.0833,37.50,7.80,2017/1/29 0:00:00
54336,台安,辽宁,41.4167,122.4167,8.30,1.50,2017/1/29 0:00:00
54337,锦州,辽宁,41.1333,121.1167,65.90,6.30,2017/1/29 0:00:00
54338,盘山,辽宁,41.2833,121.95,3.20,5.40,2017/1/29 0:00:00
54339,鞍山,辽宁,41.0833,123,77.30,0,2017/1/29 0:00:00
54340,苏家屯,辽宁,41.6667,123.3167,35.80,0,2017/1/29 0:00:00
54342,沈阳,辽宁,41.7333,123.5167,49,0,2017/1/29 0:00:00
54345,辽阳县,辽宁,41.20,123.0667,30.70,0,2017/1/29 0:00:00
54346,本溪,辽宁,41.3167,123.7833,185.40,0,2017/1/29 0:00:00
54347,辽阳,辽宁,41.2333,123.1667,24.80,0,2017/1/29 0:00:00
54348,灯塔,辽宁,41.4167,123.3333,36.80,0,2017/1/29 0:00:00
54349,本溪县,辽宁,41.30,124.1333,258.90,0,2017/1/29 0:00:00
54351,抚顺,辽宁,41.9167,124.0833,118.50,0.50,2017/1/29 0:00:00
54353,新宾,辽宁,41.7333,125.05,328.40,0,2017/1/29 0:00:00
54362,通化县,吉林,41.6667,125.7333,380.10,0,2017/1/29 0:00:00
54363,通化,吉林,41.6833,125.90,402.90,0,2017/1/29 0:00:00
54365,桓仁,辽宁,41.2833,125.35,245.50,0,2017/1/29 0:00:00
54371,白山,吉林,41.9333,126.4333,520.60,0,2017/1/29 0:00:00
54374,临江,吉林,41.80,126.8833,379.70,0,2017/1/29 0:00:00
54377,集安,吉林,41.15,126.2167,225.10,0,2017/1/29 0:00:00
54386,长白,吉林,41.4167,128.1833,775,3.10,2017/1/29 0:00:00
54398,顺义,北京,40.1333,116.6167,28.60,4.20,2017/1/29 0:00:00
54399,海淀,北京,39.9833,116.2833,45.80,6.10,2017/1/29 0:00:00
54401,张家口,河北,40.7667,114.9167,772.80,7.10,2017/1/29 0:00:00
54404,赤城,河北,40.8833,115.8333,867.60,4.90,2017/1/29 0:00:00
54405,怀来,河北,40.4167,115.50,570.90,4.70,2017/1/29 0:00:00
54406,延庆,北京,40.45,115.9667,487.90,4.20,2017/1/29 0:00:00
54408,涿鹿,河北,40.3833,115.2167,529.60,7.70,2017/1/29 0:00:00
54410,佛爷顶,北京,40.60,116.1333,1224.70,4.50,2017/1/29 0:00:00
54412,汤河口,北京,40.7333,116.6333,331.60,3,2017/1/29 0:00:00
54416,密云,北京,40.3833,116.8667,71.80,4.20,2017/1/29 0:00:00
54419,怀柔,北京,40.3667,116.6333,75.70,5.80,2017/1/29 0:00:00
54420,滦平,河北,40.9333,117.3333,529,7.20,2017/1/29 0:00:00
54421,密云上甸子,北京,40.65,117.1167,293.30,5.60,2017/1/29 0:00:00
54423,承德,河北,40.9667,117.9167,422.30,3.70,2017/1/29 0:00:00
54424,平谷,北京,40.1667,117.1167,32.10,5.20,2017/1/29 0:00:00
54425,兴隆,河北,40.40,117.4667,633.20,4.10,2017/1/29 0:00:00
54428,蓟县,天津,40.0333,117.40,15.70,6.10,2017/1/29 0:00:00
54429,遵化,河北,40.20,117.95,54.90,6.20,2017/1/29 0:00:00
54430,承德县,河北,40.7667,118.15,269.20,5.60,2017/1/29 0:00:00
54431,通州,北京,39.9167,116.6333,43.30,4.70,2017/1/29 0:00:00
54432,宽城,河北,40.60,118.4833,304.70,5.80,2017/1/29 0:00:00
54433,朝阳,北京,39.95,116.50,35.30,6.70,2017/1/29 0:00:00
54434,迁西,河北,40.1667,118.3333,131.60,6.60,2017/1/29 0:00:00
54436,青龙,河北,40.4167,118.95,254.30,7.70,2017/1/29 0:00:00
54437,滦南,河北,39.50,118.65,17.90,7.40,2017/1/29 0:00:00
54438,卢龙,河北,39.8833,118.8833,65,7.80,2017/1/29 0:00:00
54439,迁安,河北,40.0167,118.7167,50.90,7.70,2017/1/29 0:00:00
54449,秦皇岛,河北,39.85,119.5167,2.40,7.40,2017/1/29 0:00:00
54452,建昌,辽宁,40.80,119.8167,365.50,7.50,2017/1/29 0:00:00
54454,绥中,辽宁,40.3333,120.30,29,6.20,2017/1/29 0:00:00
54455,兴城,辽宁,40.6167,120.65,20.50,6.40,2017/1/29 0:00:00
54470,大洼,辽宁,41.0167,122.0667,5.50,3.10,2017/1/29 0:00:00
54471,营口,辽宁,40.65,122.1667,3.80,2,2017/1/29 0:00:00
54472,海城,辽宁,40.8833,122.7167,25.30,0,2017/1/29 0:00:00
54474,盖州,辽宁,40.4167,122.35,24.80,0,2017/1/29 0:00:00
54475,大石桥,辽宁,40.6167,122.4833,11.50,0,2017/1/29 0:00:00
54476,熊岳,辽宁,40.1667,122.15,20.40,0,2017/1/29 0:00:00
54483,草河口,辽宁,40.8833,123.90,233.60,0,2017/1/29 0:00:00
54486,岫岩,辽宁,40.2833,123.2833,79.80,0,2017/1/29 0:00:00
54493,宽甸,辽宁,40.7167,124.7833,260.10,0,2017/1/29 0:00:00
54494,凤城,辽宁,40.4667,124.0667,72.60,0,2017/1/29 0:00:00
54497,丹东,辽宁,40.05,124.3333,13.80,0.90,2017/1/29 0:00:00
54499,昌平,北京,40.2167,116.2167,76.20,6.20,2017/1/29 0:00:00
54501,斋堂,北京,39.9667,115.6833,440.30,7.50,2017/1/29 0:00:00
54502,涿州,河北,39.4833,116.0333,29.30,6.90,2017/1/29 0:00:00
54503,容城,河北,39.0667,115.8167,12.80,5.30,2017/1/29 0:00:00
54505,门头沟,北京,39.9167,116.1167,92.70,5.80,2017/1/29 0:00:00
54506,高碑店,河北,39.3167,115.95,24.60,6.80,2017/1/29 0:00:00
54507,易县,河北,39.3333,115.5167,49.30,7.40,2017/1/29 0:00:00
54510,大厂,河北,39.90,116.9833,16.90,7.10,2017/1/29 0:00:00
54511,北京,北京,39.80,116.4667,31.30,4.80,2017/1/29 0:00:00
54512,固安,河北,39.4167,116.2833,21.40,8.20,2017/1/29 0:00:00
54513,石景山,北京,39.95,116.20,65.60,6.30,2017/1/29 0:00:00
54514,丰台,北京,39.8667,116.25,55.20,3,2017/1/29 0:00:00
54515,廊坊,河北,39.50,116.70,13.70,4.40,2017/1/29 0:00:00
54518,霸州,河北,39.1667,116.40,8.90,7.60,2017/1/29 0:00:00
54519,永清,河北,39.30,116.4833,12.20,8.10,2017/1/29 0:00:00
54520,三河,河北,39.9667,117.0833,18.10,5.70,2017/1/29 0:00:00
54521,香河,河北,39.7667,116.9833,13,7.50,2017/1/29 0:00:00
54522,玉田,河北,39.8833,117.7333,14.40,6,2017/1/29 0:00:00
54523,武清,天津,39.3833,117.0167,4.50,5.60,2017/1/29 0:00:00
54525,宝坻,天津,39.7333,117.2833,5.10,6,2017/1/29 0:00:00
54526,东丽区,天津,39.0833,117.3333,1.90,7.40,2017/1/29 0:00:00
54527,天津,天津,39.0833,117.05,3.50,6.60,2017/1/29 0:00:00
54528,北辰区,天津,39.2333,117.1333,3.40,7,2017/1/29 0:00:00
54529,宁河,天津,39.35,117.8167,3.90,6.80,2017/1/29 0:00:00
54530,汉沽区,天津,39.2333,117.7667,1.30,7.40,2017/1/29 0:00:00
54531,滦县,河北,39.7333,118.7167,43,7.70,2017/1/29 0:00:00
54532,丰润,河北,39.80,118.10,33.30,6.60,2017/1/29 0:00:00
54533,丰南,河北,39.5833,118.10,8.90,7.30,2017/1/29 0:00:00
54534,唐山,河北,39.65,118.10,23.20,6.90,2017/1/29 0:00:00
54535,曹妃甸,河北,39.2833,118.4667,3.20,7,2017/1/29 0:00:00
54539,乐亭,河北,39.4333,118.8833,10.50,6.50,2017/1/29 0:00:00
54540,昌黎,河北,39.7333,119.20,17.60,6.90,2017/1/29 0:00:00
54541,抚宁,河北,39.90,119.2333,24.30,7.80,2017/1/29 0:00:00
54563,瓦房店,辽宁,39.6333,122.0167,118.70,0,2017/1/29 0:00:00
54568,金州,辽宁,39.0833,121.70,42.70,0,2017/1/29 0:00:00
54569,普兰店,辽宁,39.4167,121.95,11.70,0.70,2017/1/29 0:00:00
54575,皮口,辽宁,39.4167,122.3667,43.20,0,2017/1/29 0:00:00
54579,长海,辽宁,39.2667,122.5833,35.50,0,2017/1/29 0:00:00
54584,庄河,辽宁,39.7167,122.95,34.80,2.40,2017/1/29 0:00:00
54590,东港,辽宁,39.8833,124.1667,4.20,0,2017/1/29 0:00:00
54594,大兴,北京,39.7167,116.35,37.60,6.10,2017/1/29 0:00:00
54596,房山,北京,39.6833,116.1333,39.20,3.80,2017/1/29 0:00:00
54597,霞云岭,北京,39.7333,115.7333,407.70,4.10,2017/1/29 0:00:00
54601,徐水,河北,38.9833,115.65,13.10,4.80,2017/1/29 0:00:00
54602,保定,河北,38.7333,115.4833,16.80,1.80,2017/1/29 0:00:00
54603,高阳,河北,38.7167,115.7667,10,7.90,2017/1/29 0:00:00
54604,安国,河北,38.4167,115.3333,29.60,2.60,2017/1/29 0:00:00
54605,安新,河北,38.9333,115.9333,4.40,2.20,2017/1/29 0:00:00
54606,饶阳,河北,38.2333,115.7333,19,3.80,2017/1/29 0:00:00
54607,望都,河北,38.7167,115.1167,45,3.60,2017/1/29 0:00:00
54608,深州,河北,38,115.55,26.10,7.70,2017/1/29 0:00:00
54609,安平,河北,38.25,115.50,25.50,2.90,2017/1/29 0:00:00
54610,任丘,河北,38.7333,116.10,8.10,6.80,2017/1/29 0:00:00
54611,满城,河北,38.9333,115.3167,44.80,3.20,2017/1/29 0:00:00
54612,文安,河北,38.8667,116.45,6.40,6.10,2017/1/29 0:00:00
54613,大城,河北,38.70,116.6167,6.90,5.60,2017/1/29 0:00:00
54614,河间,河北,38.4167,116.05,10.90,3.20,2017/1/29 0:00:00
54615,青县,河北,38.5833,116.85,8,6.60,2017/1/29 0:00:00
54616,沧州,河北,38.35,116.85,8,8.10,2017/1/29 0:00:00
54617,献县,河北,38.1833,116.1167,13.20,6.20,2017/1/29 0:00:00
54618,泊头,河北,38.0833,116.55,13.20,3.20,2017/1/29 0:00:00
54619,静海,天津,38.9167,116.9167,5.50,5.70,2017/1/29 0:00:00
54620,蠡县,河北,38.4833,115.5667,18.50,7.60,2017/1/29 0:00:00
54621,深泽,河北,38.1833,115.1833,38.10,0,2017/1/29 0:00:00
54622,津南区,天津,38.9833,117.3667,3.70,6.70,2017/1/29 0:00:00
54623,塘沽,天津,39.05,117.7167,4.80,7.30,2017/1/29 0:00:00
54624,黄骅,河北,38.40,117.3167,4.50,8.70,2017/1/29 0:00:00
54626,肃宁,河北,38.4167,115.8167,13.90,8,2017/1/29 0:00:00
54627,盐山,河北,38.0333,117.2333,8.20,7,2017/1/29 0:00:00
54628,海兴,河北,38.15,117.4833,6.40,2.80,2017/1/29 0:00:00
54631,广宗,河北,37.0667,115.15,32.40,4,2017/1/29 0:00:00
54632,平乡,河北,37.0667,115.0333,34,5.70,2017/1/29 0:00:00
54633,新河,河北,37.5167,115.2333,26.30,2.50,2017/1/29 0:00:00
54636,雄县,河北,39.0167,116.10,11.10,3.70,2017/1/29 0:00:00
54640,鸡泽,河北,36.9167,114.8667,36,4.50,2017/1/29 0:00:00
54644,孟村,河北,38.05,117.1167,10.50,5.10,2017/1/29 0:00:00
54645,大港,天津,38.85,117.4667,2.20,6.10,2017/1/29 0:00:00
54660,旅顺,辽宁,38.8167,121.2333,66.70,0,2017/1/29 0:00:00
54662,大连,辽宁,38.90,121.6333,91.50,0,2017/1/29 0:00:00
54700,武强,河北,38.0333,115.9333,16.20,3.30,2017/1/29 0:00:00
54701,辛集,河北,37.9333,115.20,35.90,4.70,2017/1/29 0:00:00
54702,衡水,河北,37.7333,115.70,20.70,2.20,2017/1/29 0:00:00
54703,武邑,河北,37.80,115.8833,21.30,6.40,2017/1/29 0:00:00
54704,冀州,河北,37.5167,115.5667,24.80,2.60,2017/1/29 0:00:00
54705,南宫,河北,37.3667,115.3833,27.40,5,2017/1/29 0:00:00
54706,清河,河北,37.0833,115.6667,31.50,4.20,2017/1/29 0:00:00
54707,故城,河北,37.35,115.9833,27.40,3.70,2017/1/29 0:00:00
54708,枣强,河北,37.50,115.7333,23.60,3.40,2017/1/29 0:00:00
54709,武城,山东,37.2167,116.0667,25.70,0,2017/1/29 0:00:00
54710,阜城,河北,37.8667,116.1667,18.60,6.70,2017/1/29 0:00:00
54711,景县,河北,37.70,116.2833,18.30,3.60,2017/1/29 0:00:00
54712,临邑,山东,37.20,116.8167,18.50,0,2017/1/29 0:00:00
54713,东光,河北,37.8833,116.5333,14.40,5.50,2017/1/29 0:00:00
54714,德州,山东,37.45,116.3333,23.60,2.70,2017/1/29 0:00:00
54715,陵县,山东,37.3167,116.5667,18.60,0.80,2017/1/29 0:00:00
54716,宁津,山东,37.6667,116.80,16.30,2.10,2017/1/29 0:00:00
54717,吴桥,河北,37.6333,116.40,17.10,5.80,2017/1/29 0:00:00
54718,平原,山东,37.15,116.4333,21.80,0,2017/1/29 0:00:00
54719,南皮,河北,38.0333,116.6833,11.10,6.60,2017/1/29 0:00:00
54722,无棣,山东,37.75,117.6333,6.80,3.10,2017/1/29 0:00:00
54723,阳信,山东,37.65,117.5667,10.10,3.30,2017/1/29 0:00:00
54724,商河,山东,37.3167,117.1333,14.80,0,2017/1/29 0:00:00
54725,惠民,山东,37.50,117.5333,11.70,0,2017/1/29 0:00:00
54726,乐陵,山东,37.70,117.1833,11.50,2.70,2017/1/29 0:00:00
54727,章丘,山东,36.6833,117.55,121.80,0,2017/1/29 0:00:00
54728,庆云,山东,37.7667,117.3833,8.40,3.80,2017/1/29 0:00:00
54729,高青,山东,37.1667,117.8667,11.50,0,2017/1/29 0:00:00
54730,沾化,山东,37.70,118.1333,6.30,0,2017/1/29 0:00:00
54731,利津,山东,37.4833,118.2167,11.90,0,2017/1/29 0:00:00
54732,河口,山东,37.8667,118.5167,5.60,0,2017/1/29 0:00:00
54734,滨州,山东,37.35,118,12.20,0,2017/1/29 0:00:00
54736,东营,山东,37.4333,118.6667,6,0,2017/1/29 0:00:00
54737,博兴,山东,37.15,118.15,9.40,0,2017/1/29 0:00:00
54738,广饶,山东,37.05,118.40,15,0,2017/1/29 0:00:00
54744,垦利,山东,37.5833,118.55,8.50,0,2017/1/29 0:00:00
54749,莱州,山东,37.1833,119.95,48.40,0,2017/1/29 0:00:00
54751,长岛,山东,37.9333,120.7333,39.70,0,2017/1/29 0:00:00
54752,蓬莱,山东,37.80,120.7667,60.70,0,2017/1/29 0:00:00
54753,龙口,山东,37.6333,120.3333,4.80,0,2017/1/29 0:00:00
54755,招远,山东,37.3667,120.3833,112.30,0,2017/1/29 0:00:00
54759,栖霞,山东,37.3167,120.85,205.50,0,2017/1/29 0:00:00
54764,福山,山东,37.4833,121.2333,53.90,0,2017/1/29 0:00:00
54765,烟台,山东,37.4833,121.4333,82,0,2017/1/29 0:00:00
54766,牟平,山东,37.3833,121.6167,10.50,0,2017/1/29 0:00:00
54774,威海,山东,37.4667,122.1333,65.40,0,2017/1/29 0:00:00
54776,成山头,山东,37.40,122.70,47.70,0,2017/1/29 0:00:00
54777,文登,山东,37.20,122.0667,118,0,2017/1/29 0:00:00
54778,荣成,山东,37.1667,122.4833,61.70,0,2017/1/29 0:00:00
54800,威县,河北,37,115.25,33.30,5.30,2017/1/29 0:00:00
54801,临西,河北,36.85,115.4833,35.30,0,2017/1/29 0:00:00
54802,临清,山东,36.8167,115.7333,34,1.50,2017/1/29 0:00:00
54803,夏津,山东,36.9833,116.0167,27.90,0,2017/1/29 0:00:00
54804,大名,河北,36.30,115.1333,44.90,0,2017/1/29 0:00:00
54805,冠县,山东,36.45,115.4667,39.30,1.70,2017/1/29 0:00:00
54806,聊城,山东,36.4167,115.9667,33,0,2017/1/29 0:00:00
54807,阳谷,山东,36.1333,115.80,41.30,0,2017/1/29 0:00:00
54808,莘县,山东,36.2333,115.6333,37.80,0,2017/1/29 0:00:00
54809,馆陶,河北,36.55,115.2833,41.30,0,2017/1/29 0:00:00
54810,高唐,山东,36.8667,116.2667,27.10,0,2017/1/29 0:00:00
54811,禹城,山东,36.9333,116.6167,20.60,0,2017/1/29 0:00:00
54812,齐河,山东,36.7833,116.75,22.70,1.30,2017/1/29 0:00:00
54814,茌平,山东,36.5333,116.25,29.70,0,2017/1/29 0:00:00
54815,东阿,山东,36.3833,116.2667,31.40,0,2017/1/29 0:00:00
54816,长清,山东,36.5167,116.80,98.90,0,2017/1/29 0:00:00
54817,台前,河南,35.9833,115.8667,42.10,1.60,2017/1/29 0:00:00
54818,平阴,山东,36.25,116.4167,79.90,0,2017/1/29 0:00:00
54819,肥城,山东,36.1833,116.80,113.60,0,2017/1/29 0:00:00
54820,邱县,河北,36.8167,115.1667,36.70,3.30,2017/1/29 0:00:00
54821,济阳,山东,37,117.20,20.40,0,2017/1/29 0:00:00
54822,邹平,山东,36.8667,117.7333,47.40,0,2017/1/29 0:00:00
54823,济南,山东,36.60,117,170.30,0,2017/1/29 0:00:00
54824,淄川,山东,36.6333,117.95,95,0,2017/1/29 0:00:00
54825,博山,山东,36.5167,117.85,189.70,0,2017/1/29 0:00:00
54826,泰山,山东,36.25,117.10,1533.70,0.90,2017/1/29 0:00:00
54827,泰安,山东,36.1667,117.15,128.60,0,2017/1/29 0:00:00
54828,莱芜,山东,36.2333,117.6833,229.30,0,2017/1/29 0:00:00
54829,周村,山东,36.7667,117.8667,85.70,0,2017/1/29 0:00:00
54830,淄博,山东,36.8167,117.9333,34.40,0,2017/1/29 0:00:00
54831,青州,山东,36.65,118.50,102.50,0,2017/1/29 0:00:00
54832,寿光,山东,36.8833,118.7333,25.80,0,2017/1/29 0:00:00
54833,桓台,山东,36.9667,118.0833,15.10,0,2017/1/29 0:00:00
54834,临淄,山东,36.8667,118.2833,46.30,0,2017/1/29 0:00:00
54835,临朐,山东,36.50,118.55,106.50,0,2017/1/29 0:00:00
54836,沂源,山东,36.1833,118.1667,305.10,0,2017/1/29 0:00:00
54837,昌乐,山东,36.6833,118.8333,78.80,0,2017/1/29 0:00:00
54841,昌邑,山东,36.8667,119.4167,23.50,0,2017/1/29 0:00:00
54842,平度,山东,36.7833,120,62.20,0,2017/1/29 0:00:00
54843,潍坊,山东,36.75,119.20,22.20,0,2017/1/29 0:00:00
54844,安丘,山东,36.4167,119.1833,62.70,0,2017/1/29 0:00:00
54846,高密,山东,36.3833,119.7333,51.50,0,2017/1/29 0:00:00
54848,诸城,山东,35.9833,119.4167,82.60,0,2017/1/29 0:00:00
54849,胶州,山东,36.2167,120.0333,84.40,0,2017/1/29 0:00:00
54851,莱西,山东,36.90,120.5667,76.90,0,2017/1/29 0:00:00
54852,莱阳,山东,36.9667,120.7333,54.40,0,2017/1/29 0:00:00
54853,崂山,山东,36.1667,120.4167,42.60,0,2017/1/29 0:00:00
54855,即墨,山东,36.3833,120.4667,26.20,0,2017/1/29 0:00:00
54857,青岛,山东,36.0667,120.3333,76,0,2017/1/29 0:00:00
54861,乳山,山东,36.9333,121.5333,45.40,0,2017/1/29 0:00:00
54863,海阳,山东,36.7833,121.1833,40.90,0,2017/1/29 0:00:00
54871,石岛,山东,36.9333,122.4833,9.80,0,2017/1/29 0:00:00
54900,濮阳,河南,35.70,115.0167,53.70,0,2017/1/29 0:00:00
54901,南乐,河南,36.0833,115.1667,47.50,0.80,2017/1/29 0:00:00
54902,清丰,河南,35.90,115.1167,49.50,0,2017/1/29 0:00:00
54903,范县,河南,35.85,115.4833,45.70,0,2017/1/29 0:00:00
54904,鄄城,山东,35.5833,115.5167,50.10,0,2017/1/29 0:00:00
54905,郓城,山东,35.5833,115.9333,46.20,1.10,2017/1/29 0:00:00
54906,菏泽,山东,35.25,115.4167,49.90,0,2017/1/29 0:00:00
54907,鱼台,山东,34.9833,116.65,34.30,0,2017/1/29 0:00:00
54908,东明,山东,35.2667,115.10,57.30,0,2017/1/29 0:00:00
54909,定陶,山东,35.0833,115.5167,51.50,0,2017/1/29 0:00:00
54910,梁山,山东,35.8167,116.05,40.90,2.90,2017/1/29 0:00:00
54911,东平,山东,35.9333,116.40,44,0,2017/1/29 0:00:00
54912,汶上,山东,35.7667,116.50,41.80,0,2017/1/29 0:00:00
54913,宁阳,山东,35.75,116.8167,62.20,0,2017/1/29 0:00:00
54914,巨野,山东,35.4167,116.0833,40.60,0,2017/1/29 0:00:00
54915,济宁,山东,35.4333,116.60,33.30,0,2017/1/29 0:00:00
54916,兖州,山东,35.5667,116.85,51.70,0,2017/1/29 0:00:00
54917,金乡,山东,35.10,116.3167,36.70,0,2017/1/29 0:00:00
54918,曲阜,山东,35.60,116.9667,62.30,0,2017/1/29 0:00:00
54919,邹城,山东,35.3833,116.9833,88.70,0,2017/1/29 0:00:00
54920,泗水,山东,35.65,117.2833,110.40,0,2017/1/29 0:00:00
54921,嘉祥,山东,35.4167,116.3333,38.10,0,2017/1/29 0:00:00
54922,新泰,山东,35.8833,117.7833,224,0,2017/1/29 0:00:00
54923,蒙阴,山东,35.7167,117.9333,202.20,0,2017/1/29 0:00:00
54925,平邑,山东,35.5167,117.6333,167.20,0,2017/1/29 0:00:00
54927,滕州,山东,35.10,117.20,74.90,0,2017/1/29 0:00:00
54929,费县,山东,35.2667,117.9667,121.20,0,2017/1/29 0:00:00
54932,沂水,山东,35.7667,118.65,186.70,0,2017/1/29 0:00:00
54935,沂南,山东,35.5333,118.4333,119.40,0,2017/1/29 0:00:00
54936,莒县,山东,35.5667,118.8333,107.40,0,2017/1/29 0:00:00
54938,临沂,山东,35.05,118.40,65.20,0,2017/1/29 0:00:00
54939,莒南,山东,35.1667,118.8167,113.80,0,2017/1/29 0:00:00
54940,五莲,山东,35.75,119.20,148.20,0,2017/1/29 0:00:00
54943,胶南,山东,35.8833,120,10.40,0,2017/1/29 0:00:00
54945,日照,山东,35.4333,119.5333,36.90,0,2017/1/29 0:00:00
55228,狮泉河,西藏,32.50,80.0833,4278.60,5.10,2017/1/29 0:00:00
55248,改则,西藏,32.15,84.4167,4414.90,6.50,2017/1/29 0:00:00
55279,班戈,西藏,31.3833,90.0167,4700,7.70,2017/1/29 0:00:00
55294,安多,西藏,32.35,91.10,4800,6.50,2017/1/29 0:00:00
55299,那曲,西藏,31.4833,92.0667,4507,5.40,2017/1/29 0:00:00
55437,普兰,西藏,30.2833,81.25,3900,7.80,2017/1/29 0:00:00
55472,申扎,西藏,30.95,88.6333,4672,8.80,2017/1/29 0:00:00
55493,当雄,西藏,30.4833,91.10,4200,8.30,2017/1/29 0:00:00
55569,拉孜,西藏,29.0833,87.60,4000,8.90,2017/1/29 0:00:00
55572,南木林,西藏,29.6833,89.10,4000,5.90,2017/1/29 0:00:00
55578,日喀则,西藏,29.25,88.8833,3836,8.60,2017/1/29 0:00:00
55585,尼木,西藏,29.4333,90.1667,3809.40,8.50,2017/1/29 0:00:00
55589,贡嘎,西藏,29.30,90.9833,3555.30,9.10,2017/1/29 0:00:00
55591,拉萨,西藏,29.6667,91.1333,3648.90,9.10,2017/1/29 0:00:00
55593,墨竹工卡,西藏,29.85,91.7333,3804,9.30,2017/1/29 0:00:00
55597,琼结,西藏,29.0333,91.6833,3740,8.90,2017/1/29 0:00:00
55598,泽当,西藏,29.2667,91.7667,3560,8.90,2017/1/29 0:00:00
55655,聂拉木,西藏,28.1833,85.9667,3810,7.80,2017/1/29 0:00:00
55664,定日,西藏,28.6333,87.0833,4300,10.10,2017/1/29 0:00:00
55680,江孜,西藏,28.9167,89.60,4040,9.40,2017/1/29 0:00:00
55681,浪卡子,西藏,28.9667,90.40,4431.70,9.60,2017/1/29 0:00:00
55690,错那,西藏,27.9833,91.95,4280.30,9.80,2017/1/29 0:00:00
55696,隆子,西藏,28.4167,92.4667,3860,8.40,2017/1/29 0:00:00
55773,帕里,西藏,27.7333,89.0833,4300,10,2017/1/29 0:00:00
56004,沱沱河,青海,34.2167,92.4333,4533.10,7.30,2017/1/29 0:00:00
56016,治多,青海,33.85,95.6167,4179.10,0,2017/1/29 0:00:00
56018,杂多,青海,32.8833,95.2833,4066.40,5.90,2017/1/29 0:00:00
56021,曲麻莱,青海,34.1167,95.80,4175,0,2017/1/29 0:00:00
56029,玉树,青海,33,96.9667,3716.90,7.20,2017/1/29 0:00:00
56033,玛多,青海,34.9167,98.2167,4272.30,8,2017/1/29 0:00:00
56034,清水河,青海,33.80,97.1333,4415.40,5.30,2017/1/29 0:00:00
56038,石渠,四川,32.9833,98.10,4200,8.40,2017/1/29 0:00:00
56043,玛沁,青海,34.4833,100.2333,3719,9.20,2017/1/29 0:00:00
56045,甘德,青海,33.9667,99.90,4050,8.20,2017/1/29 0:00:00
56046,达日,青海,33.75,99.65,3967.50,5.90,2017/1/29 0:00:00
56065,河南,青海,34.7333,101.60,3500,6,2017/1/29 0:00:00
56067,久治,青海,33.4333,101.4833,3628.50,9.20,2017/1/29 0:00:00
56071,碌曲,甘肃,34.5833,102.50,3105.70,8.40,2017/1/29 0:00:00
56074,玛曲,甘肃,34,102.0833,3471.40,9.70,2017/1/29 0:00:00
56079,若尔盖,四川,33.5833,102.9667,3441.40,7.80,2017/1/29 0:00:00
56080,合作,甘肃,35,102.90,2910,8.90,2017/1/29 0:00:00
56081,临潭,甘肃,34.70,103.35,2810.20,7.40,2017/1/29 0:00:00
56082,卓尼,甘肃,34.5833,103.50,2540.30,7.70,2017/1/29 0:00:00
56084,迭部,甘肃,34.0667,103.2333,2374.20,8.20,2017/1/29 0:00:00
56091,漳县,甘肃,34.85,104.4667,1883.30,5.70,2017/1/29 0:00:00
56092,陇西,甘肃,35,104.65,1728.20,8.30,2017/1/29 0:00:00
56093,岷县,甘肃,34.4333,104.0167,2315,7.50,2017/1/29 0:00:00
56094,舟曲,甘肃,33.7833,104.3667,1400,6.60,2017/1/29 0:00:00
56095,宕昌,甘肃,34.0333,104.3833,1753.20,7.60,2017/1/29 0:00:00
56096,武都,甘肃,33.40,104.9167,1079.10,8.10,2017/1/29 0:00:00
56097,九寨沟,四川,33.2667,104.25,1436.50,6.70,2017/1/29 0:00:00
56106,索县,西藏,31.8833,93.7833,4022.80,6.40,2017/1/29 0:00:00
56109,比如,西藏,31.4833,93.7833,3940,5.80,2017/1/29 0:00:00
56116,丁青,西藏,31.4167,95.60,3873.10,6.70,2017/1/29 0:00:00
56125,囊谦,青海,32.20,96.4667,3643.70,7.50,2017/1/29 0:00:00
56128,类乌齐,西藏,31.2167,96.60,3810,8.20,2017/1/29 0:00:00
56137,昌都,西藏,31.15,97.1667,3315,6.80,2017/1/29 0:00:00
56144,德格,四川,31.80,98.5833,3184,3.90,2017/1/29 0:00:00
56146,甘孜,四川,31.6167,100,3393.50,8.70,2017/1/29 0:00:00
56147,白玉,四川,31.2167,98.8333,3260,7,2017/1/29 0:00:00
56151,班玛,青海,32.9333,100.75,3530,7.30,2017/1/29 0:00:00
56152,色达,四川,32.2833,100.3333,3893.90,8.70,2017/1/29 0:00:00
56158,炉霍,四川,31.40,100.6667,3250,8.70,2017/1/29 0:00:00
56164,壤塘,四川,32.2667,100.9833,3284.80,7.40,2017/1/29 0:00:00
56167,道孚,四川,30.9833,101.1167,2957.20,7.90,2017/1/29 0:00:00
56168,金川,四川,31.4833,102.0667,2168.90,7.20,2017/1/29 0:00:00
56171,阿坝,四川,32.90,101.70,3275.10,6.50,2017/1/29 0:00:00
56172,马尔康,四川,31.90,102.2333,2664.40,7.50,2017/1/29 0:00:00
56173,红原,四川,32.80,102.55,3491.60,7.90,2017/1/29 0:00:00
56178,小金,四川,31,102.35,2438,3.40,2017/1/29 0:00:00
56180,茂县,四川,31.6833,103.85,1590.10,8,2017/1/29 0:00:00
56181,崇州,四川,30.6833,103.70,541.70,8.10,2017/1/29 0:00:00
56182,松潘,四川,32.6667,103.60,2881.30,7.50,2017/1/29 0:00:00
56183,汶川,四川,31.50,103.6167,1369,7,2017/1/29 0:00:00
56184,理县,四川,31.4333,103.1667,1896.70,3,2017/1/29 0:00:00
56185,黑水,四川,32.0833,102.9833,2400.10,7.20,2017/1/29 0:00:00
56186,绵竹,四川,31.3333,104.20,589,2.40,2017/1/29 0:00:00
56187,温江,四川,30.75,103.8667,547.70,7.20,2017/1/29 0:00:00
56188,都江堰,四川,31,103.6667,698.50,5.40,2017/1/29 0:00:00
56189,彭州,四川,30.9833,103.9333,581.70,7.70,2017/1/29 0:00:00
56190,安县,四川,31.55,104.55,519.40,6.30,2017/1/29 0:00:00
56192,文县,甘肃,32.95,104.6667,1014.30,7,2017/1/29 0:00:00
56193,平武,四川,32.4167,104.5167,893.20,7.90,2017/1/29 0:00:00
56194,北川,四川,31.6333,104.45,597.20,1.70,2017/1/29 0:00:00
56195,江油,四川,31.80,104.7333,543.10,0,2017/1/29 0:00:00
56196,绵阳,四川,31.45,104.7333,522.70,2.60,2017/1/29 0:00:00
56197,什邡,四川,31.15,104.1667,535.70,6.50,2017/1/29 0:00:00
56198,德阳,四川,31.3167,104.50,525.70,3.80,2017/1/29 0:00:00
56199,中江,四川,31.0333,104.6833,423.50,5.90,2017/1/29 0:00:00
56202,嘉黎,西藏,30.6667,93.2833,4488.80,8.60,2017/1/29 0:00:00
56223,洛隆,西藏,30.75,95.8333,3640,8.50,2017/1/29 0:00:00
56227,波密,西藏,29.8667,95.7667,2736,6.20,2017/1/29 0:00:00
56228,八宿,西藏,30.05,96.9167,3260,8.10,2017/1/29 0:00:00
56247,巴塘,四川,30,99.10,2589.20,8.40,2017/1/29 0:00:00
56251,新龙,四川,30.9333,100.3167,3000,6.20,2017/1/29 0:00:00
56257,理塘,四川,30,100.2667,3948.90,8.50,2017/1/29 0:00:00
56263,丹巴,四川,30.8833,101.8833,1949.70,6.20,2017/1/29 0:00:00
56267,雅江,四川,30.0333,101.0167,2600.90,5.50,2017/1/29 0:00:00
56272,郫县,四川,30.8167,103.8833,558.50,6.90,2017/1/29 0:00:00
56273,宝兴,四川,30.3833,102.8167,1009.70,4.60,2017/1/29 0:00:00
56276,新津,四川,30.45,103.8167,467,7.70,2017/1/29 0:00:00
56278,天全,四川,30.0667,102.7667,755.80,7.50,2017/1/29 0:00:00
56279,芦山,四川,30.15,102.9333,682.70,6.70,2017/1/29 0:00:00
56280,名山,四川,30.0833,103.1167,691.30,8,2017/1/29 0:00:00
56281,蒲江,四川,30.1833,103.50,510.80,7.90,2017/1/29 0:00:00
56284,邛崃,四川,30.45,103.4333,518.50,7.60,2017/1/29 0:00:00
56285,大邑,四川,30.60,103.5167,523.90,7.60,2017/1/29 0:00:00
56286,龙泉驿,四川,30.55,104.25,515.10,6.90,2017/1/29 0:00:00
56287,雅安,四川,29.9833,103,627.60,6.70,2017/1/29 0:00:00
56288,双流,四川,30.5833,103.9167,494.60,8.30,2017/1/29 0:00:00
56289,彭山,四川,30.20,103.8667,437,8.40,2017/1/29 0:00:00
56290,新都,四川,30.7833,104.1833,514.50,5.90,2017/1/29 0:00:00
56291,广汉,四川,30.9333,104.2833,469,6,2017/1/29 0:00:00
56295,简阳,四川,30.3833,104.55,448.50,7.90,2017/1/29 0:00:00
56296,金堂,四川,30.85,104.4333,448.40,7.50,2017/1/29 0:00:00
56297,仁寿,四川,30.0167,104.15,436.50,8.10,2017/1/29 0:00:00
56298,资阳,四川,30.1333,104.60,417,9.50,2017/1/29 0:00:00
56307,加查,西藏,29.15,92.5833,3260,9,2017/1/29 0:00:00
56312,林芝,西藏,29.6667,94.3333,2991.80,6.90,2017/1/29 0:00:00
56317,米林,西藏,29.2167,94.2167,2950,6.30,2017/1/29 0:00:00
56331,左贡,西藏,29.6667,97.8333,3780,6.70,2017/1/29 0:00:00
56342,芒康,西藏,29.6833,98.60,3870,9.40,2017/1/29 0:00:00
56357,稻城,四川,29.05,100.30,3727.70,8.30,2017/1/29 0:00:00
56371,泸定,四川,29.9167,102.2333,1321.20,7.30,2017/1/29 0:00:00
56373,荥经,四川,29.7833,102.85,763.20,7.40,2017/1/29 0:00:00
56374,康定,四川,30.05,101.9667,2615.70,6.80,2017/1/29 0:00:00
56376,汉源,四川,29.35,102.6333,1098,5.60,2017/1/29 0:00:00
56378,石棉,四川,29.2333,102.35,890.70,4.70,2017/1/29 0:00:00
56380,洪雅,四川,29.8833,103.35,571.20,7,2017/1/29 0:00:00
56381,丹棱,四川,30.0667,103.50,630.20,3.40,2017/1/29 0:00:00
56382,夹江,四川,29.7333,103.60,407.10,7.60,2017/1/29 0:00:00
56383,青神,四川,29.8333,103.8667,455.20,8,2017/1/29 0:00:00
56384,峨眉,四川,29.60,103.4833,446.70,8.20,2017/1/29 0:00:00
56385,峨眉山,四川,29.5167,103.3333,3047.40,9.20,2017/1/29 0:00:00
56386,乐山,四川,29.5667,103.75,424.20,8.80,2017/1/29 0:00:00
56387,峨边,四川,29.2333,103.2667,642.20,6.80,2017/1/29 0:00:00
56389,犍为,四川,29.20,103.95,387.60,7.70,2017/1/29 0:00:00
56390,井研,四川,29.6667,104.0667,404.40,8,2017/1/29 0:00:00
56391,眉山,四川,30.0833,103.8167,415.40,4.50,2017/1/29 0:00:00
56393,资中,四川,29.7667,104.85,369.40,7.70,2017/1/29 0:00:00
56394,荣县,四川,29.45,104.4333,384.10,8.50,2017/1/29 0:00:00
56395,威远,四川,29.5167,104.6667,351.10,7,2017/1/29 0:00:00
56396,自贡,四川,29.35,104.7667,352.60,9.60,2017/1/29 0:00:00
56399,富顺,四川,29.1833,104.9833,306.20,9,2017/1/29 0:00:00
56434,察隅,西藏,28.65,97.4667,2327.60,6.40,2017/1/29 0:00:00
56441,得荣,四川,28.7167,99.2833,2422.90,6.40,2017/1/29 0:00:00
56443,乡城,四川,28.9333,99.80,2842,7.30,2017/1/29 0:00:00
56444,德钦,云南,28.4833,98.9167,3319,7.20,2017/1/29 0:00:00
56459,木里,四川,27.9333,101.2667,2426.50,6.70,2017/1/29 0:00:00
56462,九龙,四川,29,101.50,2925,6.60,2017/1/29 0:00:00
56473,甘洛,四川,28.95,102.7667,1060.30,4.10,2017/1/29 0:00:00
56474,冕宁,四川,28.55,102.1667,1774,6.90,2017/1/29 0:00:00
56475,越西,四川,28.65,102.5167,1659.50,5.90,2017/1/29 0:00:00
56478,喜德,四川,28.30,102.4333,1818.10,8.60,2017/1/29 0:00:00
56479,昭觉,四川,28,102.85,2132.40,4.30,2017/1/29 0:00:00
56480,马边,四川,28.8167,103.5333,564.10,7.20,2017/1/29 0:00:00
56483,绥江,云南,28.5833,103.95,496.60,7.30,2017/1/29 0:00:00
56485,雷波,四川,28.2667,103.5833,1255.80,3.40,2017/1/29 0:00:00
56487,美姑,四川,28.3333,103.1333,1943.90,5.20,2017/1/29 0:00:00
56489,永善,云南,28.2333,103.6333,877.20,4,2017/1/29 0:00:00
56490,沐川,四川,28.95,103.90,424,7.80,2017/1/29 0:00:00
56491,宜宾县,四川,28.70,104.5667,287,7.60,2017/1/29 0:00:00
56492,宜宾,四川,28.80,104.60,340.80,8.60,2017/1/29 0:00:00
56493,南溪,四川,28.85,104.9667,292.80,8,2017/1/29 0:00:00
56494,屏山,四川,28.65,104.15,462,7.80,2017/1/29 0:00:00
56496,兴文,四川,28.3167,105.2333,358.20,0,2017/1/29 0:00:00
56497,盐津,云南,28.10,104.2333,448.80,3.60,2017/1/29 0:00:00
56498,筠连,四川,28.15,104.50,549,4.90,2017/1/29 0:00:00
56499,珙县,四川,28.3833,104.7833,368.20,2.70,2017/1/29 0:00:00
56533,贡山,云南,27.75,98.6667,1583.30,6.10,2017/1/29 0:00:00
56543,香格里拉,云南,27.8333,99.70,3276.70,9.90,2017/1/29 0:00:00
56548,维西,云南,27.1667,99.2833,2326.10,7.60,2017/1/29 0:00:00
56565,盐源,四川,27.4333,101.5167,2545,9.10,2017/1/29 0:00:00
56567,宁蒗,云南,27.30,100.85,2240.50,8.90,2017/1/29 0:00:00
56569,德昌,四川,27.4167,102.1833,1380,10,2017/1/29 0:00:00
56571,西昌,四川,27.90,102.2667,1590.90,8.70,2017/1/29 0:00:00
56575,普格,四川,27.3667,102.55,1428,8.80,2017/1/29 0:00:00
56578,宁南,四川,27.0667,102.75,993.60,9.10,2017/1/29 0:00:00
56580,布拖,四川,27.7167,102.80,2460,4.20,2017/1/29 0:00:00
56582,大关,云南,27.75,103.90,1176.20,1.90,2017/1/29 0:00:00
56584,金阳,四川,27.70,103.25,1093,1.20,2017/1/29 0:00:00
56585,鲁甸,云南,27.1833,103.5333,1916,2.40,2017/1/29 0:00:00
56586,昭通,云南,27.35,103.7167,1949.50,2.60,2017/1/29 0:00:00
56592,高县,四川,28.4333,104.5167,359.70,6.40,2017/1/29 0:00:00
56593,长宁,四川,28.5833,104.9167,279.10,6.30,2017/1/29 0:00:00
56594,彝良,云南,27.6333,104.05,880.40,3.90,2017/1/29 0:00:00
56595,镇雄,云南,27.4167,104.8667,1645.20,6,2017/1/29 0:00:00
56596,威信,云南,27.85,105.05,1177.20,3.30,2017/1/29 0:00:00
56598,赫章,贵州,27.1333,104.7333,1535.10,2.20,2017/1/29 0:00:00
56641,福贡,云南,26.90,98.8667,1189.70,6.80,2017/1/29 0:00:00
56643,六库,云南,25.8667,98.85,949.90,8.40,2017/1/29 0:00:00
56645,兰坪,云南,26.4167,99.4167,2344.90,9.10,2017/1/29 0:00:00
56646,剑川,云南,26.5333,99.9167,2191.40,9.90,2017/1/29 0:00:00
56649,洱源,云南,26.10,99.9667,2059.90,9.60,2017/1/29 0:00:00
56651,丽江,云南,26.85,100.2167,2380.90,10,2017/1/29 0:00:00
56652,永胜,云南,26.6833,100.75,2130.50,9.20,2017/1/29 0:00:00
56654,鹤庆,云南,26.5833,100.1833,2195.40,9.60,2017/1/29 0:00:00
56664,华坪,云南,26.6333,101.2667,1230.80,9.50,2017/1/29 0:00:00
56665,盐边,四川,26.6833,101.85,1140.30,9.20,2017/1/29 0:00:00
56666,攀枝花,四川,26.5833,101.7167,1224.80,9.60,2017/1/29 0:00:00
56669,永仁,云南,26.05,101.6667,1531.30,7.80,2017/1/29 0:00:00
56670,米易,四川,26.9167,102.1167,1136.90,9.10,2017/1/29 0:00:00
56671,会理,四川,26.65,102.25,1787.30,9.70,2017/1/29 0:00:00
56673,巧家,云南,26.9167,102.9167,893.90,8.50,2017/1/29 0:00:00
56674,仁和,四川,26.50,101.7333,1108,8.80,2017/1/29 0:00:00
56675,会东,四川,26.65,102.5833,1694.50,9.50,2017/1/29 0:00:00
56684,会泽,云南,26.4167,103.2833,2110.50,9.60,2017/1/29 0:00:00
56688,东川,云南,26.10,103.1667,1254.10,8.70,2017/1/29 0:00:00
56691,威宁,贵州,26.8667,104.2833,2237.50,0.40,2017/1/29 0:00:00
56693,水城,贵州,26.5833,104.8667,1815.90,0,2017/1/29 0:00:00
56697,宣威,云南,26.2167,104.0833,1984.20,7.80,2017/1/29 0:00:00
56739,腾冲,云南,25.0167,98.50,1654.60,9.80,2017/1/29 0:00:00
56742,云龙,云南,25.90,99.3667,1658.50,8.30,2017/1/29 0:00:00
56745,漾濞,云南,25.6833,99.95,1626.10,8.90,2017/1/29 0:00:00
56746,永平,云南,25.4667,99.5167,1616.70,9.30,2017/1/29 0:00:00
56748,保山,云南,25.1167,99.1833,1652.20,9.60,2017/1/29 0:00:00
56751,大理,云南,25.70,100.1833,1990.50,8.80,2017/1/29 0:00:00
56752,宾川,云南,25.8333,100.5667,1438.70,9.30,2017/1/29 0:00:00
56755,弥渡,云南,25.35,100.4833,1668.50,9.60,2017/1/29 0:00:00
56756,祥云,云南,25.4833,100.5833,1992.90,9.30,2017/1/29 0:00:00
56757,巍山,云南,25.2667,100.2833,1742.10,9.40,2017/1/29 0:00:00
56761,大姚,云南,25.7167,101.3167,1878.10,9.70,2017/1/29 0:00:00
56763,元谋,云南,25.7333,101.8667,1120.60,8.50,2017/1/29 0:00:00
56764,姚安,云南,25.5333,101.2333,1873.50,9.50,2017/1/29 0:00:00
56766,牟定,云南,25.30,101.5167,1822,9.60,2017/1/29 0:00:00
56767,南华,云南,25.1833,101.2833,1857.40,9.70,2017/1/29 0:00:00
56768,楚雄,云南,25.0333,101.55,1824.10,8.90,2017/1/29 0:00:00
56772,富民,云南,25.2333,102.50,1692.70,10,2017/1/29 0:00:00
56774,武定,云南,25.5333,102.4167,1710.70,9.80,2017/1/29 0:00:00
56775,禄劝,云南,25.55,102.45,1750.90,9,2017/1/29 0:00:00
56777,禄丰,云南,25.15,102.0667,1566.10,8.60,2017/1/29 0:00:00
56778,昆明,云南,25,102.65,1888.10,10.30,2017/1/29 0:00:00
56781,寻甸,云南,25.55,103.2667,1873.20,9.30,2017/1/29 0:00:00
56782,马龙,云南,25.4167,103.55,2067.10,9.80,2017/1/29 0:00:00
56783,曲靖,云南,25.50,103.80,1906.20,8.70,2017/1/29 0:00:00
56785,嵩明,云南,25.35,103.0833,1915.70,9.70,2017/1/29 0:00:00
56786,沾益,云南,25.5833,103.8333,1898.70,8.90,2017/1/29 0:00:00
56788,陆良,云南,24.9833,103.6167,1857.60,9.50,2017/1/29 0:00:00
56790,富源,云南,25.6833,104.25,1925.80,6.60,2017/1/29 0:00:00
56792,普安,贵州,25.7833,104.9667,1649.40,0.90,2017/1/29 0:00:00
56793,盘县,贵州,25.7167,104.4667,1800,4.90,2017/1/29 0:00:00
56835,陇川,云南,24.0667,97.8167,959.10,8.90,2017/1/29 0:00:00
56836,盈江,云南,24.70,97.95,826.70,9.20,2017/1/29 0:00:00
56838,瑞丽,云南,24,97.85,762.90,7.60,2017/1/29 0:00:00
56839,镇康,云南,23.7667,98.8167,995.30,8.20,2017/1/29 0:00:00
56840,粱河,云南,24.8167,98.30,1012.90,8.50,2017/1/29 0:00:00
56841,龙陵,云南,24.60,98.6833,1528,7.60,2017/1/29 0:00:00
56842,施甸,云南,24.7333,99.1833,1471.20,7.10,2017/1/29 0:00:00
56843,昌宁,云南,24.8333,99.6167,1650.60,8.70,2017/1/29 0:00:00
56844,芒市,云南,24.4333,98.5833,913.80,9.50,2017/1/29 0:00:00
56846,凤庆,云南,24.5833,99.9333,1569,5.40,2017/1/29 0:00:00
56849,永德,云南,24.0333,99.2333,1606.20,9.10,2017/1/29 0:00:00
56851,南涧,云南,25.0333,100.5167,1377.20,8.70,2017/1/29 0:00:00
56854,云县,云南,24.45,100.1333,1108.60,9.40,2017/1/29 0:00:00
56856,景东,云南,24.4667,100.8667,1162.30,9.40,2017/1/29 0:00:00
56862,双柏,云南,24.6833,101.60,1968.10,9.80,2017/1/29 0:00:00
56863,安宁,云南,24.9333,102.4833,1848,10,2017/1/29 0:00:00
56867,镇沅,云南,23.9833,101.1167,1105.40,5.60,2017/1/29 0:00:00
56869,新平,云南,24.0667,101.9667,1497.50,9.90,2017/1/29 0:00:00
56870,易门,云南,24.6667,102.1667,1575.90,8.50,2017/1/29 0:00:00
56871,晋宁,云南,24.65,102.60,1893.10,9.90,2017/1/29 0:00:00
56872,太华山,云南,24.95,102.6167,2358.30,9.50,2017/1/29 0:00:00
56873,澄江,云南,24.6833,102.9167,1796.30,9.60,2017/1/29 0:00:00
56875,玉溪,云南,24.3333,102.55,1716.90,9.80,2017/1/29 0:00:00
56876,江川,云南,24.2833,102.7667,1731.10,9.70,2017/1/29 0:00:00
56878,通海,云南,24.1333,102.75,1801.80,9.60,2017/1/29 0:00:00
56879,华宁,云南,24.1833,102.9167,1702.60,10,2017/1/29 0:00:00
56880,宜良,云南,24.9167,103.1667,1532.50,10.10,2017/1/29 0:00:00
56881,石林,云南,24.75,103.2667,1695.80,9.20,2017/1/29 0:00:00
56882,呈贡,云南,24.8833,102.80,1906.60,8.60,2017/1/29 0:00:00
56883,师宗,云南,24.8167,103.9833,1900.90,8.90,2017/1/29 0:00:00
56885,弥勒,云南,24.40,103.45,1415.50,9.50,2017/1/29 0:00:00
56886,泸西,云南,24.5333,103.7667,1704.30,9.80,2017/1/29 0:00:00
56889,丘北,云南,24.05,104.1667,1518.70,10,2017/1/29 0:00:00
56891,罗平,云南,24.9833,104.3167,1482.70,8.50,2017/1/29 0:00:00
56898,峨山,云南,24.1833,102.40,1600,9.40,2017/1/29 0:00:00
56944,沧源,云南,23.15,99.2667,1278.30,4.20,2017/1/29 0:00:00
56946,耿马,云南,23.55,99.40,1104.90,6.50,2017/1/29 0:00:00
56948,西盟,云南,22.6333,99.60,1155,9.10,2017/1/29 0:00:00
56949,孟连,云南,22.3167,99.60,945,6.90,2017/1/29 0:00:00
56950,双江,云南,23.4667,99.80,1044.10,9.80,2017/1/29 0:00:00
56951,临沧,云南,23.8833,100.0833,1502.40,9.20,2017/1/29 0:00:00
56952,景谷,云南,23.50,100.70,913.20,6.60,2017/1/29 0:00:00
56954,澜沧,云南,22.5667,99.9333,1054.80,7.50,2017/1/29 0:00:00
56958,勐海,云南,21.9167,100.4167,1176.30,9,2017/1/29 0:00:00
56959,景洪,云南,22,100.7833,582,9.20,2017/1/29 0:00:00
56961,宁洱,云南,23.0333,101.05,1336.90,7.90,2017/1/29 0:00:00
56962,墨江,云南,23.4167,101.6667,1314.60,10.10,2017/1/29 0:00:00
56964,思茅,云南,22.7833,100.9667,1302.10,9.70,2017/1/29 0:00:00
56966,元江,云南,23.60,101.9833,400.90,9.80,2017/1/29 0:00:00
56969,勐腊,云南,21.4667,101.5833,633.40,5.90,2017/1/29 0:00:00
56970,石屏,云南,23.70,102.4833,1419.30,8.50,2017/1/29 0:00:00
56973,建水,云南,23.6167,102.8333,1309.30,9.40,2017/1/29 0:00:00
56975,红河,云南,23.3667,102.4333,974.50,9.60,2017/1/29 0:00:00
56976,元阳,云南,23.2333,102.8333,232,7.50,2017/1/29 0:00:00
56977,江城,云南,22.5833,101.85,1120.50,8.40,2017/1/29 0:00:00
56978,绿春,云南,23,102.4167,1642.80,10.20,2017/1/29 0:00:00
56982,开远,云南,23.70,103.2833,1117,9.80,2017/1/29 0:00:00
56984,个旧,云南,23.3833,103.15,1720.50,9.40,2017/1/29 0:00:00
56985,蒙自,云南,23.3833,103.3833,1300.70,10.20,2017/1/29 0:00:00
56986,屏边,云南,22.9833,103.6833,1414.10,8,2017/1/29 0:00:00
56987,金平,云南,22.7833,103.2333,1260,9.40,2017/1/29 0:00:00
56989,河口,云南,22.50,103.95,137.80,6,2017/1/29 0:00:00
56991,砚山,云南,23.6167,104.3333,1561.10,8.90,2017/1/29 0:00:00
56992,西畴,云南,23.45,104.70,1507.50,8.30,2017/1/29 0:00:00
56994,文山,云南,23.3333,104.2833,1293.50,9.60,2017/1/29 0:00:00
56995,马关,云南,23.0333,104.4167,1332.90,9,2017/1/29 0:00:00
56996,麻栗坡,云南,23.1333,104.70,1093.40,7,2017/1/29 0:00:00
57001,甘谷,甘肃,34.75,105.3333,1271.90,8.20,2017/1/29 0:00:00
57002,秦安,甘肃,34.85,105.65,1216.10,8.90,2017/1/29 0:00:00
57003,陇县,陕西,34.90,106.8333,924.20,8.80,2017/1/29 0:00:00
57004,武山,甘肃,34.7333,104.8833,1495.40,7.20,2017/1/29 0:00:00
57006,天水,甘肃,34.5833,105.75,1141.60,8.60,2017/1/29 0:00:00
57007,礼县,甘肃,34.1833,105.1833,1404.60,8,2017/1/29 0:00:00
57008,西和,甘肃,34.0333,105.30,1579,8.60,2017/1/29 0:00:00
57011,清水,甘肃,34.75,106.15,1378.20,8.90,2017/1/29 0:00:00
57012,张家川,甘肃,34.9833,106.20,1664.50,8.70,2017/1/29 0:00:00
57014,麦积,甘肃,34.5667,105.8667,1085.20,8.40,2017/1/29 0:00:00
57016,宝鸡,陕西,34.35,107.1333,612.40,8.20,2017/1/29 0:00:00
57020,宝鸡县,陕西,34.3667,107.40,563,8.60,2017/1/29 0:00:00
57021,千阳,陕西,34.65,107.1333,751.60,8.30,2017/1/29 0:00:00
57022,麟游,陕西,34.6833,107.7833,1026.30,8.40,2017/1/29 0:00:00
57023,彬县,陕西,35.0333,108.10,840.70,8.80,2017/1/29 0:00:00
57024,岐山,陕西,34.45,107.65,669.60,8,2017/1/29 0:00:00
57025,凤翔,陕西,34.5167,107.3833,781.10,9.10,2017/1/29 0:00:00
57026,扶风,陕西,34.3667,107.8833,585.90,8.20,2017/1/29 0:00:00
57027,眉县,陕西,34.2667,107.7333,517.60,7.20,2017/1/29 0:00:00
57028,太白,陕西,34.0333,107.3167,1543.60,8.40,2017/1/29 0:00:00
57029,礼泉,陕西,34.50,108.4833,543.20,4.60,2017/1/29 0:00:00
57030,永寿,陕西,34.70,108.15,994.60,7.70,2017/1/29 0:00:00
57031,淳化,陕西,34.8167,108.55,1012.70,7.70,2017/1/29 0:00:00
57032,周至,陕西,34.1333,108.20,436,8.50,2017/1/29 0:00:00
57033,泾阳,陕西,34.55,108.8167,428.10,7.70,2017/1/29 0:00:00
57034,武功,陕西,34.25,108.2167,447.80,7.60,2017/1/29 0:00:00
57035,乾县,陕西,34.55,108.2333,636.80,7.80,2017/1/29 0:00:00
57037,耀县,陕西,34.9333,108.9833,710,8.70,2017/1/29 0:00:00
57038,兴平,陕西,34.2833,108.45,410.90,7.40,2017/1/29 0:00:00
57039,长安,陕西,34.0833,108.8833,445,8.20,2017/1/29 0:00:00
57040,高陵,陕西,34.5167,109.0833,377.60,8.10,2017/1/29 0:00:00
57041,三原,陕西,34.6333,108.9167,424,7.80,2017/1/29 0:00:00
57042,富平,陕西,34.7833,109.1833,470.90,8.70,2017/1/29 0:00:00
57043,大荔,陕西,34.80,109.9667,351.40,8,2017/1/29 0:00:00
57044,临潼,陕西,34.40,109.2333,424.50,7.60,2017/1/29 0:00:00
57045,渭南,陕西,34.5167,109.4833,349.80,8.30,2017/1/29 0:00:00
57046,华山,陕西,34.4833,110.0833,2064.90,7.80,2017/1/29 0:00:00
57047,蓝田,陕西,34.1667,109.3167,540.20,8.40,2017/1/29 0:00:00
57048,秦都,陕西,34.40,108.7167,472.80,7.70,2017/1/29 0:00:00
57049,华县,陕西,34.5167,109.7333,341.50,7.30,2017/1/29 0:00:00
57051,三门峡,河南,34.80,111.20,409.90,6.10,2017/1/29 0:00:00
57052,永济,山西,34.8833,110.45,354.10,7.50,2017/1/29 0:00:00
57053,芮城,山西,34.70,110.7167,505.70,6.50,2017/1/29 0:00:00
57054,潼关,陕西,34.55,110.2333,556.30,7.50,2017/1/29 0:00:00
57055,华阴,陕西,34.55,110.0833,351.30,8.10,2017/1/29 0:00:00
57056,灵宝,河南,34.5333,110.8833,390.40,7,2017/1/29 0:00:00
57057,洛南,陕西,34.10,110.15,963.40,0,2017/1/29 0:00:00
57060,夏县,山西,35.1667,111.2333,402.90,6.10,2017/1/29 0:00:00
57061,平陆,山西,34.8333,111.20,410.70,6.20,2017/1/29 0:00:00
57063,渑池,河南,34.7667,111.7667,523.60,6.80,2017/1/29 0:00:00
57065,宜阳,河南,34.55,112.1333,317.50,4.90,2017/1/29 0:00:00
57066,洛宁,河南,34.3833,111.6667,328.30,8.50,2017/1/29 0:00:00
57067,卢氏,河南,34.05,111.0333,568.80,5.90,2017/1/29 0:00:00
57070,新安,河南,34.7333,112.1167,364,0,2017/1/29 0:00:00
57071,孟津,河南,34.8167,112.4333,333.30,0,2017/1/29 0:00:00
57072,孟州,河南,34.9167,112.75,127.50,0,2017/1/29 0:00:00
57074,伊川,河南,34.4167,112.40,252.20,1.70,2017/1/29 0:00:00
57075,汝州,河南,34.1667,112.8667,203.10,0,2017/1/29 0:00:00
57076,偃师,河南,34.7333,112.7833,189.50,0,2017/1/29 0:00:00
57077,栾川,河南,33.7833,111.65,742.40,5.40,2017/1/29 0:00:00
57078,汝阳,河南,34.15,112.4667,336.50,4.70,2017/1/29 0:00:00
57079,温县,河南,34.95,113.0333,106.40,0,2017/1/29 0:00:00
57080,巩义,河南,34.7333,112.9667,165.20,0,2017/1/29 0:00:00
57081,荥阳,河南,34.80,113.4333,140.90,0,2017/1/29 0:00:00
57082,登封,河南,34.4667,113.0167,427.10,0,2017/1/29 0:00:00
57083,郑州,河南,34.7167,113.65,110.40,0,2017/1/29 0:00:00
57084,嵩山,河南,34.50,113.05,1178.40,0.20,2017/1/29 0:00:00
57085,新密,河南,34.5333,113.3333,259.90,0,2017/1/29 0:00:00
57086,新郑,河南,34.3833,113.7167,116.60,0,2017/1/29 0:00:00
57087,长葛,河南,34.20,113.80,87.70,0,2017/1/29 0:00:00
57088,禹州,河南,34.15,113.50,116.10,0,2017/1/29 0:00:00
57089,许昌,河南,34.0667,113.9333,67.20,0,2017/1/29 0:00:00
57090,中牟,河南,34.7167,113.9667,78.10,0,2017/1/29 0:00:00
57091,开封,河南,34.7833,114.30,73.70,0,2017/1/29 0:00:00
57093,兰考,河南,34.85,114.8167,73.30,0,2017/1/29 0:00:00
57094,尉氏,河南,34.40,114.2167,67.40,0,2017/1/29 0:00:00
57095,鄢陵,河南,34.1167,114.15,61.10,0,2017/1/29 0:00:00
57096,杞县,河南,34.5333,114.7833,59.70,0,2017/1/29 0:00:00
57098,扶沟,河南,34.0833,114.40,58.30,0,2017/1/29 0:00:00
57099,太康,河南,34.0667,114.85,52.60,0,2017/1/29 0:00:00
57102,成县,甘肃,33.75,105.7167,970,9.40,2017/1/29 0:00:00
57105,康县,甘肃,33.3333,105.60,1221.20,8.30,2017/1/29 0:00:00
57106,略阳,陕西,33.3167,106.15,794.20,8,2017/1/29 0:00:00
57110,徽县,甘肃,33.7833,106.0833,930.80,8.80,2017/1/29 0:00:00
57111,两当,甘肃,33.9167,106.30,961.40,8.30,2017/1/29 0:00:00
57113,凤县,陕西,33.90,106.5333,985.90,7.50,2017/1/29 0:00:00
57119,勉县,陕西,33.1667,106.70,548.10,1.40,2017/1/29 0:00:00
57123,杨凌,陕西,34.2833,108.0667,506,8.40,2017/1/29 0:00:00
57124,留坝,陕西,33.6333,106.9333,1032.10,8,2017/1/29 0:00:00
57126,洋县,陕西,33.2167,107.55,468.60,4.60,2017/1/29 0:00:00
57127,汉中,陕西,33.0667,107.0333,509.50,3.20,2017/1/29 0:00:00
57128,城固,陕西,33.1667,107.3333,486.40,3.50,2017/1/29 0:00:00
57129,西乡,陕西,32.9833,107.7167,446,5.50,2017/1/29 0:00:00
57131,泾河,陕西,34.4333,108.9667,410,8.30,2017/1/29 0:00:00
57132,户县,陕西,34.1167,108.6167,414.80,7.10,2017/1/29 0:00:00
57134,佛坪,陕西,33.5167,107.9833,827.20,0,2017/1/29 0:00:00
57137,宁陕,陕西,33.3167,108.3167,802.40,2.40,2017/1/29 0:00:00
57140,柞水,陕西,33.6667,109.1167,818.20,7.30,2017/1/29 0:00:00
57143,商县,陕西,33.8667,109.9667,742.20,8.70,2017/1/29 0:00:00
57144,镇安,陕西,33.4333,109.15,693.70,5.80,2017/1/29 0:00:00
57153,丹凤,陕西,33.6833,110.3333,581.70,7.40,2017/1/29 0:00:00
57154,商南,陕西,33.5333,110.90,523,7.50,2017/1/29 0:00:00
57155,山阳,陕西,33.55,109.8667,660.20,4.20,2017/1/29 0:00:00
57156,西峡,河南,33.30,111.50,250.30,4.10,2017/1/29 0:00:00
57162,嵩县,河南,34.15,112.0833,325.80,5,2017/1/29 0:00:00
57169,内乡,河南,33.05,111.8667,159.10,4.70,2017/1/29 0:00:00
57173,鲁山,河南,33.75,112.8833,145.70,0,2017/1/29 0:00:00
57175,镇平,河南,33.05,112.2333,191.40,2.30,2017/1/29 0:00:00
57176,南召,河南,33.4833,112.4167,231.10,1.40,2017/1/29 0:00:00
57177,舞钢,河南,33.3333,113.5333,89.80,0,2017/1/29 0:00:00
57178,南阳,河南,33.0333,112.5833,129.20,1.10,2017/1/29 0:00:00
57179,方城,河南,33.2833,113,160.40,0,2017/1/29 0:00:00
57180,郏县,河南,33.9833,113.20,117.50,0,2017/1/29 0:00:00
57181,宝丰,河南,33.8833,113.05,136.40,0,2017/1/29 0:00:00
57182,襄城,河南,33.85,113.5167,80.40,0,2017/1/29 0:00:00
57183,临颍,河南,33.80,113.9167,60,0,2017/1/29 0:00:00
57184,叶县,河南,33.6333,113.3667,83.40,0,2017/1/29 0:00:00
57185,舞阳,河南,33.45,113.5833,91.10,0,2017/1/29 0:00:00
57186,漯河,河南,33.60,114.05,58.70,0,2017/1/29 0:00:00
57187,社旗,河南,33.0667,112.9333,118,0,2017/1/29 0:00:00
57188,西平,河南,33.3667,114.0333,55.90,0,2017/1/29 0:00:00
57189,遂平,河南,33.1333,113.95,64.60,0,2017/1/29 0:00:00
57190,黄泛区农试站,河南,33.75,114.40,50.50,0,2017/1/29 0:00:00
57191,通许,河南,34.4833,114.4833,63.40,0,2017/1/29 0:00:00
57192,淮阳,河南,33.7333,114.85,45.50,0,2017/1/29 0:00:00
57193,西华,河南,33.7833,114.5167,52.60,0,2017/1/29 0:00:00
57194,上蔡,河南,33.2833,114.2667,59.80,0,2017/1/29 0:00:00
57195,川汇区,河南,33.6167,114.6167,46.60,0,2017/1/29 0:00:00
57196,项城,河南,33.4667,114.8667,42,0,2017/1/29 0:00:00
57197,汝南,河南,32.9667,114.35,50.10,0,2017/1/29 0:00:00
57198,商水,河南,33.55,114.6167,46.30,0,2017/1/29 0:00:00
57204,青川,四川,32.5667,105.2167,782,8.20,2017/1/29 0:00:00
57206,广元,四川,32.4333,105.85,513.80,8.20,2017/1/29 0:00:00
57208,剑阁,四川,32.2833,105.5167,544.50,6.60,2017/1/29 0:00:00
57211,宁强,陕西,32.8333,106.25,836.10,6.70,2017/1/29 0:00:00
57213,南郑,陕西,33,106.9333,536.50,4,2017/1/29 0:00:00
57216,南江,四川,32.35,106.8333,579.30,8.10,2017/1/29 0:00:00
57217,旺苍,四川,32.2333,106.2833,485.70,7.50,2017/1/29 0:00:00
57231,紫阳,陕西,32.5333,108.5333,503.80,0,2017/1/29 0:00:00
57232,石泉,陕西,33.05,108.2667,484.90,2.90,2017/1/29 0:00:00
57233,汉阴,陕西,32.90,108.50,413.10,0.50,2017/1/29 0:00:00
57237,万源,四川,32.0667,108.0333,674,3,2017/1/29 0:00:00
57238,镇巴,陕西,32.5333,107.90,693.90,3.90,2017/1/29 0:00:00
57242,旬阳,陕西,32.85,109.3667,285.50,2,2017/1/29 0:00:00
57245,安康,陕西,32.7167,109.0333,290.80,1,2017/1/29 0:00:00
57247,岚皋,陕西,32.3167,108.90,438.50,0,2017/1/29 0:00:00
57248,平利,陕西,32.40,109.3333,431,2.30,2017/1/29 0:00:00
57249,竹溪,湖北,32.3167,109.6833,448.20,0,2017/1/29 0:00:00
57251,郧西,湖北,33,110.4167,249.10,5.10,2017/1/29 0:00:00
57253,郧县,湖北,32.85,110.8167,201.90,4.50,2017/1/29 0:00:00
57254,白河,陕西,32.8167,110.1167,322.50,4.80,2017/1/29 0:00:00
57256,十堰,湖北,32.65,110.7833,286.50,3.90,2017/1/29 0:00:00
57257,竹山,湖北,32.2333,110.2333,307,2.90,2017/1/29 0:00:00
57259,房县,湖北,32.0333,110.7667,426.90,2.60,2017/1/29 0:00:00
57260,丹江口,湖北,32.5667,111.5167,133.40,3.30,2017/1/29 0:00:00
57261,淅川,河南,33.1167,111.5167,233,4,2017/1/29 0:00:00
57265,老河口,湖北,32.4333,111.7333,132.10,2.10,2017/1/29 0:00:00
57268,谷城,湖北,32.2667,111.6167,120,7.80,2017/1/29 0:00:00
57271,新野,河南,32.55,112.3833,87.90,1.20,2017/1/29 0:00:00
57273,唐河,河南,32.6833,112.85,109.50,0,2017/1/29 0:00:00
57274,邓州,河南,32.70,112.1167,107.60,2.70,2017/1/29 0:00:00
57278,襄阳,湖北,32,112.0833,163.40,2.70,2017/1/29 0:00:00
57279,枣阳,湖北,32.15,112.75,125.50,0,2017/1/29 0:00:00
57281,泌阳,河南,32.70,113.30,142.20,0,2017/1/29 0:00:00
57285,桐柏,河南,32.3833,113.4167,153,0,2017/1/29 0:00:00
57290,驻马店,河南,33,114.0167,82.70,0,2017/1/29 0:00:00
57292,平舆,河南,32.9667,114.6333,44.40,0,2017/1/29 0:00:00
57293,新蔡,河南,32.7333,114.9833,38,0,2017/1/29 0:00:00
57294,确山,河南,32.8333,114.0167,83.60,0,2017/1/29 0:00:00
57295,正阳,河南,32.6167,114.35,78.50,0,2017/1/29 0:00:00
57296,息县,河南,32.35,114.7333,48.90,0,2017/1/29 0:00:00
57297,信阳,河南,32.1333,114.05,114.50,0,2017/1/29 0:00:00
57298,罗山,河南,32.2167,114.55,55.40,0,2017/1/29 0:00:00
57299,光山,河南,32.0167,114.90,49.40,0,2017/1/29 0:00:00
57303,苍溪,四川,31.7333,105.9167,459.90,7.50,2017/1/29 0:00:00
57304,梓潼,四川,31.6667,105.1667,516.50,6.80,2017/1/29 0:00:00
57306,阆中,四川,31.5833,105.9667,382.60,7.40,2017/1/29 0:00:00
57307,三台,四川,31.10,105.0833,404.90,8,2017/1/29 0:00:00
57308,盐亭,四川,31.2167,105.3833,421.30,8.20,2017/1/29 0:00:00
57309,西充,四川,30.9833,105.8833,378.40,6.80,2017/1/29 0:00:00
57313,巴中,四川,31.8667,106.7667,417.70,8.70,2017/1/29 0:00:00
57314,南部,四川,31.35,106.0667,405.70,6.70,2017/1/29 0:00:00
57315,仪陇,四川,31.5333,106.40,655.70,7.40,2017/1/29 0:00:00
57317,蓬安,四川,31.0333,106.4167,324.90,6.30,2017/1/29 0:00:00
57318,营山,四川,31.0667,106.55,338.50,8.90,2017/1/29 0:00:00
57320,通江,四川,31.9333,107.2167,482.40,7.30,2017/1/29 0:00:00
57324,平昌,四川,31.5833,107.0833,364.20,7.60,2017/1/29 0:00:00
57326,宣汉,四川,31.3667,107.7167,389.40,1.20,2017/1/29 0:00:00
57328,达县,四川,31.20,107.50,344.90,1.10,2017/1/29 0:00:00
57329,开江,四川,31.10,107.85,467.50,0,2017/1/29 0:00:00
57333,城口,重庆,31.95,108.6667,798.20,0,2017/1/29 0:00:00
57338,开县,重庆,31.1833,108.4167,216.50,0,2017/1/29 0:00:00
57339,云阳,重庆,30.95,108.6833,297.20,0,2017/1/29 0:00:00
57343,镇坪,陕西,31.90,109.5333,995.80,0,2017/1/29 0:00:00
57345,巫溪,重庆,31.40,109.6167,337.80,0,2017/1/29 0:00:00
57348,奉节,重庆,31.0167,109.5333,299.80,0,2017/1/29 0:00:00
57349,巫山,重庆,31.0667,109.8667,275.70,0,2017/1/29 0:00:00
57355,巴东,湖北,31.0333,110.3667,334,0,2017/1/29 0:00:00
57358,秭归,湖北,30.8333,110.9667,295.50,0,2017/1/29 0:00:00
57359,兴山,湖北,31.35,110.7333,336.80,0,2017/1/29 0:00:00
57361,保康,湖北,31.8833,111.2667,327.70,1,2017/1/29 0:00:00
57362,神农架,湖北,31.75,110.6667,935.20,0.70,2017/1/29 0:00:00
57363,南漳,湖北,31.80,111.8333,151,0,2017/1/29 0:00:00
57368,远安,湖北,31.05,111.6333,141.50,0,2017/1/29 0:00:00
57370,宜城,湖北,31.7333,112.2167,67.80,0,2017/1/29 0:00:00
57377,荆门,湖北,31,112.2167,191.90,0,2017/1/29 0:00:00
57378,钟祥,湖北,31.1667,112.5667,65.80,0,2017/1/29 0:00:00
57381,随州,湖北,31.6167,113.3333,116.30,0,2017/1/29 0:00:00
57385,广水,湖北,31.6167,113.8167,93.30,0,2017/1/29 0:00:00
57386,孝昌,湖北,31.25,114,51.60,0,2017/1/29 0:00:00
57387,京山,湖北,31,113.1333,84.60,0,2017/1/29 0:00:00
57388,安陆,湖北,31.2667,113.70,53.70,0,2017/1/29 0:00:00
57389,云梦,湖北,31.0333,113.75,32.20,0,2017/1/29 0:00:00
57390,鸡公山,河南,31.80,114.0667,733.50,0,2017/1/29 0:00:00
57395,大悟,湖北,31.5667,114.1167,74.90,0,2017/1/29 0:00:00
57396,新县,河南,31.6333,114.85,128.70,0,2017/1/29 0:00:00
57398,红安,湖北,31.2833,114.6167,74.30,0,2017/1/29 0:00:00
57399,麻城,湖北,31.1333,114.95,74.30,0,2017/1/29 0:00:00
57401,射洪,四川,30.8667,105.3667,383.30,8.40,2017/1/29 0:00:00
57402,蓬溪,四川,30.7667,105.70,394.50,6.30,2017/1/29 0:00:00
57405,遂宁,四川,30.50,105.55,355,4.50,2017/1/29 0:00:00
57407,乐至,四川,30.2833,105.0333,462.60,7.70,2017/1/29 0:00:00
57408,安岳,四川,30.1167,105.35,338.40,7.40,2017/1/29 0:00:00
57409,潼南,重庆,30.1833,105.80,297.70,8.10,2017/1/29 0:00:00
57411,高坪,四川,30.7833,106.10,309.70,7.40,2017/1/29 0:00:00
57413,渠县,四川,30.85,106.9667,295.10,4.70,2017/1/29 0:00:00
57414,岳池,四川,30.5167,106.45,403.70,6.20,2017/1/29 0:00:00
57415,广安,四川,30.5167,106.6333,394.50,4.20,2017/1/29 0:00:00
57416,邻水,四川,30.3333,106.9333,391.50,0,2017/1/29 0:00:00
57417,武胜,四川,30.35,106.2833,315.90,5,2017/1/29 0:00:00
57420,大竹,四川,30.75,107.1833,418,2.10,2017/1/29 0:00:00
57425,垫江,重庆,30.3333,107.3333,433.80,0,2017/1/29 0:00:00
57426,梁平,重庆,30.6833,107.80,454.50,0,2017/1/29 0:00:00
57431,天城,重庆,30.8333,108.35,257,0,2017/1/29 0:00:00
57432,万州,重庆,30.7667,108.40,186.70,0,2017/1/29 0:00:00
57437,忠县,重庆,30.30,108.0333,325.60,0,2017/1/29 0:00:00
57438,石柱,重庆,29.9833,108.1167,632.30,0,2017/1/29 0:00:00
57439,利川,湖北,30.2833,108.9333,1074.10,0,2017/1/29 0:00:00
57445,建始,湖北,30.60,109.7167,609.20,0,2017/1/29 0:00:00
57447,恩施,湖北,30.2833,109.4667,457.10,0,2017/1/29 0:00:00
57453,夷陵区,湖北,30.7667,111.3167,115.20,0,2017/1/29 0:00:00
57458,五峰,湖北,30.20,110.6667,619.90,0,2017/1/29 0:00:00
57460,当阳,湖北,30.8167,111.7833,91.80,0,2017/1/29 0:00:00
57461,宜昌,湖北,30.70,111.30,133.10,0,2017/1/29 0:00:00
57464,长阳,湖北,30.4667,111.1833,142.60,0,2017/1/29 0:00:00
57465,宜都,湖北,30.3833,111.45,74.10,0,2017/1/29 0:00:00
57466,枝江,湖北,30.4333,111.75,50,0,2017/1/29 0:00:00
57469,松滋,湖北,30.1833,111.7667,69.50,0,2017/1/29 0:00:00
57475,潜江,湖北,30.40,112.90,31.20,0,2017/1/29 0:00:00
57476,荆州,湖北,30.35,112.15,31.80,0,2017/1/29 0:00:00
57477,公安,湖北,30.0667,112.2167,38.40,0,2017/1/29 0:00:00
57481,应城,湖北,30.95,113.5667,30.40,0,2017/1/29 0:00:00
57482,孝感,湖北,30.90,113.95,25.50,0,2017/1/29 0:00:00
57483,天门,湖北,30.6667,113.1333,31.90,0,2017/1/29 0:00:00
57484,沙洋,湖北,30.44,112.33,57.20,0,2017/1/29 0:00:00
57485,仙桃,湖北,30.30,113.4833,23.70,0,2017/1/29 0:00:00
57486,汉川,湖北,30.65,113.85,25,0,2017/1/29 0:00:00
57489,蔡甸,湖北,30.5833,114,38.40,0,2017/1/29 0:00:00
57491,黄陂,湖北,30.8667,114.40,31.40,0,2017/1/29 0:00:00
57492,新洲,湖北,30.8333,114.80,26.40,0,2017/1/29 0:00:00
57493,江夏,湖北,30.35,114.3333,73.50,0,2017/1/29 0:00:00
57494,武汉,湖北,30.60,114.05,23.60,0,2017/1/29 0:00:00
57495,团风,湖北,30.6667,114.8833,28.10,0,2017/1/29 0:00:00
57496,鄂州,湖北,30.3667,114.8667,31.30,0,2017/1/29 0:00:00
57498,黄冈,湖北,30.4333,114.90,21.40,0,2017/1/29 0:00:00
57499,大冶,湖北,30.0667,114.8833,40.30,0,2017/1/29 0:00:00
57502,大足,重庆,29.70,105.70,394.70,0,2017/1/29 0:00:00
57503,东兴区,四川,29.6167,105.1167,349.70,7.50,2017/1/29 0:00:00
57505,荣昌,重庆,29.4167,105.5833,338,7,2017/1/29 0:00:00
57506,永川,重庆,29.3667,105.90,353,4.50,2017/1/29 0:00:00
57507,隆昌,四川,29.3333,105.30,373.40,9.60,2017/1/29 0:00:00
57508,泸县,四川,29.15,105.3667,301,8.60,2017/1/29 0:00:00
57509,万盛,重庆,28.95,106.9333,325.30,0,2017/1/29 0:00:00
57510,铜梁,重庆,29.85,106.0667,326.30,5.30,2017/1/29 0:00:00
57511,北碚,重庆,29.85,106.45,240.80,2.70,2017/1/29 0:00:00
57512,合川,重庆,29.9667,106.2833,230.60,1.70,2017/1/29 0:00:00
57513,渝北,重庆,29.7333,106.6167,464.70,1.30,2017/1/29 0:00:00
57514,璧山,重庆,29.5833,106.2167,331.50,3,2017/1/29 0:00:00
57516,沙坪坝,重庆,29.5833,106.4667,259.10,1.20,2017/1/29 0:00:00
57517,江津,重庆,29.2833,106.25,261.40,0.20,2017/1/29 0:00:00
57518,巴南,重庆,29.3333,106.50,506.10,0,2017/1/29 0:00:00
57519,南川,重庆,29.1667,107.1167,698.80,0,2017/1/29 0:00:00
57520,长寿,重庆,29.8333,107.0667,377.60,0,2017/1/29 0:00:00
57522,涪陵,重庆,29.7333,107.2667,372.80,0,2017/1/29 0:00:00
57523,丰都,重庆,29.85,107.7333,290.50,0,2017/1/29 0:00:00
57525,武隆,重庆,29.3167,107.75,277.90,3.20,2017/1/29 0:00:00
57536,黔江,重庆,29.5333,108.7833,607.30,0,2017/1/29 0:00:00
57537,彭水,重庆,29.30,108.1667,322.20,2.90,2017/1/29 0:00:00
57540,咸丰,湖北,29.6833,109.15,776.90,0,2017/1/29 0:00:00
57541,宣恩,湖北,30,109.4833,532.50,0,2017/1/29 0:00:00
57543,鹤峰,湖北,29.90,110.0333,539.80,0,2017/1/29 0:00:00
57544,龙山,湖南,29.4667,109.45,488.70,0,2017/1/29 0:00:00
57545,来凤,湖北,29.5333,109.4167,502.80,0,2017/1/29 0:00:00
57554,桑植,湖南,29.40,110.1667,322.20,0,2017/1/29 0:00:00
57558,张家界,湖南,29.1333,110.4667,183.50,0,2017/1/29 0:00:00
57562,石门,湖南,29.5833,111.3667,116.90,0,2017/1/29 0:00:00
57564,慈利,湖南,29.4333,111.1333,103,0,2017/1/29 0:00:00
57565,澧县,湖南,29.6667,111.7333,38.10,0,2017/1/29 0:00:00
57566,临澧,湖南,29.45,111.65,51.50,0,2017/1/29 0:00:00
57571,石首,湖北,29.70,112.40,35.70,0,2017/1/29 0:00:00
57573,监利,湖北,29.8333,112.90,30,0,2017/1/29 0:00:00
57574,南县,湖南,29.3667,112.40,36,0,2017/1/29 0:00:00
57575,华容,湖南,29.5167,112.5667,31,0,2017/1/29 0:00:00
57577,安乡,湖南,29.40,112.1667,36.90,0,2017/1/29 0:00:00
57581,洪湖,湖北,29.8167,113.45,27.40,0,2017/1/29 0:00:00
57582,赤壁,湖北,29.7167,113.8833,46.90,0,2017/1/29 0:00:00
57583,嘉鱼,湖北,29.9167,113.9667,61.70,0,2017/1/29 0:00:00
57584,岳阳,湖南,29.3833,113.0833,53,0,2017/1/29 0:00:00
57585,临湘,湖南,29.4833,113.45,60.40,0,2017/1/29 0:00:00
57586,崇阳,湖北,29.5333,114.0333,78.50,0,2017/1/29 0:00:00
57589,通城,湖北,29.25,113.80,102.60,0,2017/1/29 0:00:00
57590,咸宁,湖北,29.85,114.3667,98.80,0,2017/1/29 0:00:00
57595,通山,湖北,29.60,114.50,76.10,0,2017/1/29 0:00:00
57598,修水,江西,29.0333,114.5833,146.80,0,2017/1/29 0:00:00
57600,江安,四川,28.7167,105.0667,263,7.30,2017/1/29 0:00:00
57603,合江,四川,28.8167,105.8333,283.40,3.70,2017/1/29 0:00:00
57604,纳溪,四川,28.7833,105.3833,368.80,7.10,2017/1/29 0:00:00
57605,古蔺,四川,28.0333,105.8167,537.70,0.20,2017/1/29 0:00:00
57606,桐梓,贵州,28.1333,106.8333,972,0,2017/1/29 0:00:00
57608,叙永,四川,28.1667,105.4333,377.50,1.60,2017/1/29 0:00:00
57609,赤水,贵州,28.5833,105.70,317,2.50,2017/1/29 0:00:00
57612,綦江,重庆,29,106.65,474.70,0,2017/1/29 0:00:00
57614,习水,贵州,28.3333,106.2167,1180.20,0,2017/1/29 0:00:00
57623,道真,贵州,28.8833,107.60,685.60,0,2017/1/29 0:00:00
57625,正安,贵州,28.55,107.45,679.70,3.50,2017/1/29 0:00:00
57633,酉阳,重庆,28.8167,108.7667,826.50,0,2017/1/29 0:00:00
57634,务川,贵州,28.5167,107.8833,660.30,0.90,2017/1/29 0:00:00
57635,秀山,重庆,28.45,108.9833,363.70,0,2017/1/29 0:00:00
57636,沿河,贵州,28.5667,108.50,334.60,0.80,2017/1/29 0:00:00
57637,德江,贵州,28.25,108.1167,523.10,0,2017/1/29 0:00:00
57640,花垣,湖南,28.5833,109.45,341,0,2017/1/29 0:00:00
57642,保靖,湖南,28.70,109.6333,325.30,0,2017/1/29 0:00:00
57643,永顺,湖南,29,109.8333,268.20,0,2017/1/29 0:00:00
57646,古丈,湖南,28.6167,109.95,302.10,0,2017/1/29 0:00:00
57647,松桃,贵州,28.15,109.1833,406.10,0,2017/1/29 0:00:00
57649,吉首,湖南,28.2333,109.6833,254.60,0,2017/1/29 0:00:00
57655,沅陵,湖南,28.4667,110.40,151.60,0,2017/1/29 0:00:00
57657,泸溪,湖南,28.2167,110.20,186,0,2017/1/29 0:00:00
57658,辰溪,湖南,28.0167,110.20,152.80,0,2017/1/29 0:00:00
57661,桃源,湖南,28.9167,111.4833,48.70,0,2017/1/29 0:00:00
57662,常德,湖南,29.1167,111.6833,150.60,0,2017/1/29 0:00:00
57663,汉寿,湖南,28.9167,111.95,31.90,0,2017/1/29 0:00:00
57666,桃江,湖南,28.5167,112.1333,52.10,0,2017/1/29 0:00:00
57669,安化,湖南,28.3833,111.2167,128.30,0,2017/1/29 0:00:00
57671,沅江,湖南,28.85,112.3667,37,0,2017/1/29 0:00:00
57673,湘阴,湖南,28.6833,112.8833,53.20,0,2017/1/29 0:00:00
57674,赫山,湖南,28.5667,112.3833,46.30,0,2017/1/29 0:00:00
57678,宁乡,湖南,28.25,112.55,74.70,0,2017/1/29 0:00:00
57679,马坡岭,湖南,28.1167,112.7833,115,0,2017/1/29 0:00:00
57680,汨罗,湖南,28.80,113.0667,46.70,0,2017/1/29 0:00:00
57682,平江,湖南,28.7167,113.5667,106.30,0,2017/1/29 0:00:00
57687,长沙,湖南,28.2167,112.9167,68,0,2017/1/29 0:00:00
57688,浏阳,湖南,28.15,113.6333,101.10,0,2017/1/29 0:00:00
57694,铜鼓,江西,28.5333,114.3833,259.80,2.40,2017/1/29 0:00:00
57696,宜丰,江西,28.40,114.7833,91.70,5,2017/1/29 0:00:00
57698,万载,江西,28.1167,114.45,98.40,4.40,2017/1/29 0:00:00
57699,上高,江西,28.2333,114.9167,66.60,5.40,2017/1/29 0:00:00
57707,毕节,贵州,27.30,105.2833,1510.60,4,2017/1/29 0:00:00
57708,大方,贵州,27.15,105.60,1700,2.60,2017/1/29 0:00:00
57710,仁怀,贵州,27.80,106.40,890.30,0,2017/1/29 0:00:00
57712,汇川,贵州,27.7333,106.95,983.50,0,2017/1/29 0:00:00
57714,金沙,贵州,27.4667,106.2333,942,2.90,2017/1/29 0:00:00
57717,遵义县,贵州,27.5333,106.8333,974.10,0,2017/1/29 0:00:00
57718,息烽,贵州,27.10,106.7333,1038.10,1.80,2017/1/29 0:00:00
57719,开阳,贵州,27.0667,106.9667,1275.60,0.60,2017/1/29 0:00:00
57720,绥阳,贵州,27.8833,107.1667,889.30,0,2017/1/29 0:00:00
57722,湄潭,贵州,27.7667,107.4667,792.20,0,2017/1/29 0:00:00
57723,凤冈,贵州,27.9833,107.7167,710.20,0,2017/1/29 0:00:00
57728,瓮安,贵州,27.0667,107.4667,1096.70,1,2017/1/29 0:00:00
57729,余庆,贵州,27.2333,107.8833,622.10,0,2017/1/29 0:00:00
57731,思南,贵州,27.95,108.25,416.80,0,2017/1/29 0:00:00
57732,印江,贵州,28.0167,108.40,456.50,0.70,2017/1/29 0:00:00
57734,石阡,贵州,27.5667,108.2333,467.50,0,2017/1/29 0:00:00
57735,岑巩,贵州,27.1833,108.8167,404.30,0,2017/1/29 0:00:00
57736,江口,贵州,27.70,108.85,369.20,0,2017/1/29 0:00:00
57737,施秉,贵州,27.0333,108.1167,547.30,0.70,2017/1/29 0:00:00
57738,镇远,贵州,27.05,108.4167,516.30,0,2017/1/29 0:00:00
57739,玉屏,贵州,27.2333,108.9167,394.80,0,2017/1/29 0:00:00
57740,凤凰,湖南,27.95,109.60,349.60,0,2017/1/29 0:00:00
57741,铜仁,贵州,27.7167,109.1833,282.70,0,2017/1/29 0:00:00
57742,万山,贵州,27.5167,109.20,884.30,0,2017/1/29 0:00:00
57743,麻阳,湖南,27.8833,109.80,176.60,0,2017/1/29 0:00:00
57744,新晃,湖南,27.3667,109.1667,355.50,0,2017/1/29 0:00:00
57745,芷江,湖南,27.45,109.6833,272.20,0,2017/1/29 0:00:00
57749,怀化,湖南,27.5667,110,257.80,0,2017/1/29 0:00:00
57752,溆浦,湖南,27.9167,110.60,204,0,2017/1/29 0:00:00
57754,洪江,湖南,27.35,110.15,170.90,0,2017/1/29 0:00:00
57758,洞口,湖南,27.0667,110.5833,323.50,0,2017/1/29 0:00:00
57760,冷水江,湖南,27.70,111.4333,249.20,0,2017/1/29 0:00:00
57761,新化,湖南,27.75,111.30,211.90,0,2017/1/29 0:00:00
57762,涟源,湖南,27.6833,111.70,165,0,2017/1/29 0:00:00
57763,娄底,湖南,27.6833,112,205.80,0,2017/1/29 0:00:00
57766,邵阳市,湖南,27.1833,111.45,311,0,2017/1/29 0:00:00
57767,隆回,湖南,27.1333,111,308.40,0,2017/1/29 0:00:00
57768,新邵,湖南,27.3167,111.45,242.50,0,2017/1/29 0:00:00
57769,邵东,湖南,27.2333,111.7333,252.60,0,2017/1/29 0:00:00
57771,韶山,湖南,27.9333,112.5333,88.30,0,2017/1/29 0:00:00
57772,湘乡,湖南,27.75,112.50,86.90,0,2017/1/29 0:00:00
57773,湘潭,湖南,27.8667,112.8167,63.80,0,2017/1/29 0:00:00
57774,双峰,湖南,27.45,112.1667,100,0,2017/1/29 0:00:00
57776,南岳,湖南,27.30,112.70,1265.90,3,2017/1/29 0:00:00
57777,衡山,湖南,27.2333,112.8667,63.30,0.90,2017/1/29 0:00:00
57778,衡东,湖南,27.10,112.95,70.30,1.90,2017/1/29 0:00:00
57779,攸县,湖南,27,113.35,102.50,3.60,2017/1/29 0:00:00
57780,株洲,湖南,27.8667,113.1667,74.60,0,2017/1/29 0:00:00
57781,醴陵,湖南,27.65,113.50,74.40,0,2017/1/29 0:00:00
57783,上栗,江西,27.8833,113.8167,119.50,3.30,2017/1/29 0:00:00
57786,萍乡,江西,27.6333,113.85,117.50,6.30,2017/1/29 0:00:00
57789,莲花,江西,27.1333,113.95,194.50,5.80,2017/1/29 0:00:00
57792,分宜,江西,27.8167,114.6833,93.70,7.10,2017/1/29 0:00:00
57793,宜春,江西,27.80,114.3833,131.30,5.80,2017/1/29 0:00:00
57794,芦溪,江西,27.6333,114.0167,177.20,4.20,2017/1/29 0:00:00
57796,新余,江西,27.80,114.9333,82,5.50,2017/1/29 0:00:00
57798,安福,江西,27.40,114.60,85.90,5.50,2017/1/29 0:00:00
57799,吉安县,江西,27.05,114.9167,71.20,4.80,2017/1/29 0:00:00
57800,纳雍,贵州,26.7667,105.3667,1457.10,3,2017/1/29 0:00:00
57803,黔西,贵州,27.0333,106.0167,1231.40,3.20,2017/1/29 0:00:00
57805,织金,贵州,26.6833,105.7667,1319.30,0,2017/1/29 0:00:00
57806,安顺,贵州,26.25,105.90,1431.10,2.60,2017/1/29 0:00:00
57807,六枝,贵州,26.20,105.4667,1361.90,0,2017/1/29 0:00:00
57808,普定,贵州,26.3167,105.75,1274.50,0,2017/1/29 0:00:00
57809,镇宁,贵州,26.0667,105.75,1251,0,2017/1/29 0:00:00
57811,修文,贵州,26.8333,106.60,1296.70,2.20,2017/1/29 0:00:00
57813,清镇,贵州,26.5667,106.4667,1261.90,1.80,2017/1/29 0:00:00
57814,平坝,贵州,26.4167,106.2667,1298.20,2.40,2017/1/29 0:00:00
57816,贵阳,贵州,26.5833,106.7333,1223.80,1.60,2017/1/29 0:00:00
57818,长顺,贵州,26.0333,106.45,1140,0.40,2017/1/29 0:00:00
57821,福泉,贵州,26.70,107.50,925,0,2017/1/29 0:00:00
57822,黄平,贵州,26.90,107.90,835,1.40,2017/1/29 0:00:00
57824,贵定,贵州,26.5833,107.2333,1001,1.50,2017/1/29 0:00:00
57825,凯里,贵州,26.60,107.9833,720.30,0,2017/1/29 0:00:00
57827,都匀,贵州,26.3167,107.5333,969.10,1,2017/1/29 0:00:00
57828,麻江,贵州,26.50,107.5833,983.80,1.30,2017/1/29 0:00:00
57829,丹寨,贵州,26.20,107.80,963.20,0.60,2017/1/29 0:00:00
57832,三穗,贵州,26.9667,108.6667,626.90,0,2017/1/29 0:00:00
57834,台江,贵州,26.6833,108.30,641.30,0.50,2017/1/29 0:00:00
57835,剑河,贵州,26.7167,108.4333,527.20,0.50,2017/1/29 0:00:00
57837,雷山,贵州,26.40,108.0667,839,0,2017/1/29 0:00:00
57839,黎平,贵州,26.2333,109.15,568.80,0,2017/1/29 0:00:00
57840,天柱,贵州,26.90,109.20,401.40,0,2017/1/29 0:00:00
57841,靖州,湖南,26.5667,109.6667,320.30,0,2017/1/29 0:00:00
57842,会同,湖南,26.8833,109.7167,281.40,0,2017/1/29 0:00:00
57844,锦屏,贵州,26.6833,109.1833,343,0,2017/1/29 0:00:00
57845,通道,湖南,26.1667,109.7833,397.50,1.10,2017/1/29 0:00:00
57846,绥宁,湖南,26.5833,110.15,310.30,0,2017/1/29 0:00:00
57851,新宁,湖南,26.4667,110.8333,346.10,0,2017/1/29 0:00:00
57853,武冈,湖南,26.7333,110.6333,341,0,2017/1/29 0:00:00
57857,城步,湖南,26.3667,110.3167,477.70,0,2017/1/29 0:00:00
57859,资源,广西,26.0333,110.6333,408.40,2.80,2017/1/29 0:00:00
57860,邵阳县,湖南,27,111.2833,283.30,0,2017/1/29 0:00:00
57865,冷水滩,湖南,26.4667,111.5833,166.10,3.30,2017/1/29 0:00:00
57866,永州,湖南,26.2333,111.6167,172.60,2.80,2017/1/29 0:00:00
57867,东安,湖南,26.40,111.2833,169,3.40,2017/1/29 0:00:00
57868,祁阳,湖南,26.60,111.8667,113.20,2.60,2017/1/29 0:00:00
57870,祁东,湖南,26.80,112.10,151.60,1.50,2017/1/29 0:00:00
57871,衡阳县,湖南,26.9833,112.3667,90.80,0,2017/1/29 0:00:00
57872,衡阳,湖南,26.90,112.60,104.90,2.30,2017/1/29 0:00:00
57874,常宁,湖南,26.4167,112.40,116.60,4,2017/1/29 0:00:00
57875,衡南,湖南,26.75,112.6833,137,4.20,2017/1/29 0:00:00
57876,耒阳,湖南,26.4333,112.8333,135,4.80,2017/1/29 0:00:00
57881,安仁,湖南,26.7167,113.25,101.80,2.60,2017/1/29 0:00:00
57882,茶陵,湖南,26.7833,113.55,136.20,6.60,2017/1/29 0:00:00
57883,夏坪,江西,26.75,114.2833,253,7.10,2017/1/29 0:00:00
57886,炎陵,湖南,26.4833,113.80,268.80,2.70,2017/1/29 0:00:00
57887,永兴,湖南,26.1167,113.1167,167.60,5.60,2017/1/29 0:00:00
57889,桂东,湖南,26.0833,113.95,835.90,4,2017/1/29 0:00:00
57891,永新,江西,26.9333,114.25,153,2.70,2017/1/29 0:00:00
57894,井冈山,江西,26.5833,114.1667,843,3.10,2017/1/29 0:00:00
57895,万安,江西,26.4667,114.7833,101.60,0.60,2017/1/29 0:00:00
57896,遂川,江西,26.3333,114.50,126.10,0.80,2017/1/29 0:00:00
57899,泰和,江西,26.80,114.9167,71.40,0,2017/1/29 0:00:00
57900,晴隆,贵州,25.8333,105.2167,1552.70,0,2017/1/29 0:00:00
57902,兴仁,贵州,25.4333,105.1833,1378.50,1,2017/1/29 0:00:00
57903,关岭,贵州,25.9333,105.60,1142,0,2017/1/29 0:00:00
57905,贞丰,贵州,25.40,105.6333,1063.30,0,2017/1/29 0:00:00
57906,望谟,贵州,25.1833,106.0833,566.80,1.20,2017/1/29 0:00:00
57907,兴义,贵州,25.0833,104.90,1299.60,5.10,2017/1/29 0:00:00
57908,安龙,贵州,25.1167,105.4833,1394.50,2.90,2017/1/29 0:00:00
57909,册亨,贵州,24.9833,105.8167,584.80,1.60,2017/1/29 0:00:00
57910,紫云,贵州,25.7667,106.0833,1197.60,0,2017/1/29 0:00:00
57911,白云,贵州,26.6667,106.65,1323,6.10,2017/1/29 0:00:00
