站号,站名,省名,纬度,经度,海拔高度,最小RH
50136,漠河,黑龙江,52.9667,122.5167,433,42
50137,北极村,黑龙江,53.4667,122.3667,296,44
50246,塔河,黑龙江,52.35,124.7167,361.90,39
50247,呼中,黑龙江,52.0333,123.5667,514.50,37
50349,新林,黑龙江,51.6667,124.40,501.50,39
50353,呼玛,黑龙江,51.7333,126.6333,173.90,47
50425,额尔古纳市,内蒙古,50.25,120.1833,581.40,57
50431,根河市,内蒙古,50.7833,121.5167,717,51
50434,图里河,内蒙古,50.4833,121.6833,732.60,48
50442,加格达奇,黑龙江,50.40,124.1167,371.70,39
50445,鄂伦春自治旗,内蒙古,50.5833,123.7333,423.70,38
50468,爱辉,黑龙江,50.25,127.45,166.40,39
50514,满洲里,内蒙古,49.5833,117.3167,661.80,63
50524,陈巴尔虎旗,内蒙古,49.3167,119.4333,576.60,59
50525,鄂温克族自治旗,内蒙古,49.15,119.75,620.80,54
50526,牙克石市,内蒙古,49.2833,120.70,668.80,61
50527,海拉尔,内蒙古,49.25,119.70,649.60,65
50548,小二沟,内蒙古,49.20,123.7167,286.10,54
50557,嫩江,黑龙江,49.1667,125.2333,242.20,50
50564,孙吴,黑龙江,49.4333,127.35,234.50,39
50566,逊克,黑龙江,49.55,128.4667,116,49
50603,新巴尔虎右旗,内蒙古,48.6667,116.8167,554.20,59
50618,新巴尔虎左旗,内蒙古,48.2167,118.2667,642,61
50632,博克图,内蒙古,48.7667,121.9167,739.70,41
50639,扎兰屯,内蒙古,48,122.7333,306.50,34
50645,莫力达瓦达斡尔族自治旗,内蒙古,48.4833,124.4833,195,50
50646,讷河,黑龙江,48.4833,124.85,202.80,51
50647,阿荣旗,内蒙古,48.1333,123.4833,236.20,40
50655,五大连池,黑龙江,48.50,126.1833,266.80,49
50656,北安,黑龙江,48.2667,126.50,277.10,59
50658,克山,黑龙江,48.05,125.8833,236,49
50659,克东,黑龙江,48.0333,126.25,291.80,52
50673,嘉荫,黑龙江,48.8833,130.40,90.40,53
50674,乌伊岭,黑龙江,48.5667,129.4333,404.50,41
50727,阿尔山,内蒙古,47.1667,119.9333,997.20,54
50739,龙江,黑龙江,47.3333,123.1833,190,44
50741,甘南,黑龙江,47.9333,123.50,185.20,41
50742,富裕,黑龙江,47.80,124.4833,162.70,46
50745,齐齐哈尔,黑龙江,47.3833,123.9167,147.10,47
50749,林甸,黑龙江,47.1833,124.8333,154.60,54
50750,依安,黑龙江,47.90,125.30,226.40,51
50755,拜泉,黑龙江,47.60,126.10,230.70,50
50756,海伦,黑龙江,47.45,126.9667,239.20,59
50758,明水,黑龙江,47.1833,125.90,246,57
50767,绥棱,黑龙江,47.2333,127.10,202.70,52
50772,五营,黑龙江,48.10,129.2333,288,38
50774,伊春,黑龙江,47.70,128.8333,264.80,37
50775,鹤岗,黑龙江,47.3333,130.2667,227.90,31
50776,萝北,黑龙江,47.5667,130.8333,83.30,42
50778,同江,黑龙江,47.6667,132.5333,57.50,54
50779,抚远,黑龙江,48.3667,134.2833,40,57
50787,绥滨,黑龙江,47.2833,131.85,61.80,56
50788,富锦,黑龙江,47.2333,131.9833,66.40,55
50832,胡尔勒,内蒙古,46.7167,122.0833,332.60,39
50833,扎赉特旗,内蒙古,46.7167,122.90,187.80,34
50834,索伦,内蒙古,46.60,121.2167,499.70,31
50838,乌兰浩特,内蒙古,46.0833,122.05,274.70,28
50842,杜蒙,黑龙江,46.8333,124.4167,145.40,47
50844,泰来,黑龙江,46.40,123.45,138.80,40
50850,大庆,黑龙江,46.5667,125.1333,147.20,43
50851,青冈,黑龙江,46.6833,126.0833,207.40,52
50852,望奎,黑龙江,46.8333,126.45,169.10,51
50853,北林,黑龙江,46.6167,126.9667,179.60,47
50854,安达,黑龙江,46.3833,125.3167,149.30,50
50858,肇东,黑龙江,46.0667,125.9333,135,51
50859,兰西,黑龙江,46.25,126.2667,159.10,47
50861,庆安,黑龙江,46.8833,127.4833,184.80,59
50862,铁力,黑龙江,46.9833,127.9833,206,45
50867,巴彦,黑龙江,46.0833,127.35,134.10,53
50871,汤原,黑龙江,46.7333,129.8833,95.10,37
50873,佳木斯,黑龙江,46.7833,130.30,82,31
50877,依兰,黑龙江,46.30,129.5833,100.10,46
50878,桦川,黑龙江,47,130.7167,78.20,42
50879,桦南,黑龙江,46.2167,130.55,187,46
50880,集贤,黑龙江,46.7333,131.1167,102.30,41
50881,友谊,黑龙江,46.47,131.47,-999999,50
50884,双鸭山,黑龙江,46.6333,131.15,175.30,38
50888,宝清,黑龙江,46.3167,132.1833,83,47
50892,饶河,黑龙江,46.80,134,54.40,52
50913,乌拉盖,内蒙古,45.7167,118.8333,865,60
50915,东乌珠穆沁,内蒙古,45.5167,116.9667,838.70,58
50924,霍林郭勒,内蒙古,45.5333,119.6667,823.70,61
50928,巴雅尔吐胡硕,内蒙古,45.0667,120.3333,628.30,35
50934,突泉,内蒙古,45.3833,121.5833,311.70,26
50936,白城,吉林,45.6333,122.8333,155.30,47
50937,科尔沁右翼中旗,内蒙古,45.05,121.4667,249.90,27
50939,洮南,吉林,45.3333,122.8167,150.80,42
50940,镇赉,吉林,45.85,123.1667,141.10,46
50945,大安,吉林,45.50,124.2667,137.60,48
50946,松原,吉林,45.1833,124.8333,139.80,46
50948,乾安,吉林,45,124.0167,146.30,44
50949,前郭,吉林,45.0833,124.8667,136.20,46
50950,肇州,黑龙江,45.70,125.25,148.70,54
50953,哈尔滨,黑龙江,45.9333,126.5667,118.30,50
50954,肇源,黑龙江,45.50,125.0833,127.50,45
50955,双城,黑龙江,45.3833,126.30,166.40,52
50956,呼兰,黑龙江,46.0833,126.7667,134.50,51
50958,阿城,黑龙江,45.5167,126.95,174.30,52
50960,宾县,黑龙江,45.7833,127.45,192.20,49
50962,木兰,黑龙江,45.95,128.0333,112.10,53
50963,通河,黑龙江,45.9667,128.7333,108.60,54
50964,方正,黑龙江,45.8333,128.80,119.30,44
50965,延寿,黑龙江,45.45,128.2833,155.30,39
50968,尚志,黑龙江,45.2167,127.9667,189.70,44
50971,七台河,黑龙江,45.7667,131.0167,223.50,48
50973,勃利,黑龙江,45.75,130.60,234.40,51
50978,鸡西,黑龙江,45.30,130.9167,272.50,41
50979,林口,黑龙江,45.2667,130.2333,274.70,39
50983,虎林,黑龙江,45.7667,132.9667,100.20,46
50985,密山,黑龙江,45.55,131.8667,151.70,51
50987,鸡东,黑龙江,45.2667,131.10,219.90,43
51053,哈巴河,新疆,48.05,86.40,532.60,42
51058,阿克达拉,新疆,47.10,87.9667,563.30,67
51059,吉木乃,新疆,47.4333,85.8667,984.10,56
51060,布尔津,新疆,47.70,86.8667,473.90,53
51068,福海,新疆,47.1167,87.4667,500.90,50
51076,阿勒泰,新疆,47.7333,88.0833,735.30,38
51087,富蕴,新疆,46.9833,89.5167,807.50,52
51133,塔城,新疆,46.7333,83,534.90,37
51137,裕民,新疆,46.20,82.9333,715.40,32
51145,额敏,新疆,46.55,83.65,521.60,43
51156,和布克赛尔,新疆,46.7833,85.7167,1291.60,33
51186,青河,新疆,46.6667,90.3833,1218.20,49
51232,阿拉山口,新疆,45.1833,82.5667,336.10,82
51238,博乐,新疆,44.90,82.0667,531.90,58
51241,托里,新疆,45.9333,83.60,1077.80,58
51243,克拉玛依,新疆,45.6167,84.85,449.50,65
51288,北塔山,新疆,45.3667,90.5333,1653.70,36
51328,霍尔果斯,新疆,44.20,80.4167,770.90,40
51329,霍城,新疆,44.05,80.85,640,59
51330,温泉,新疆,44.9667,81.0167,1357.80,50
51334,精河,新疆,44.60,82.90,318.60,59
51346,乌苏,新疆,44.4333,84.6667,478.70,60
51352,炮台,新疆,44.85,85.25,337.10,67
51353,莫索湾,新疆,45.0167,86.10,346,69
51356,石河子,新疆,44.3167,86.05,442.90,72
51357,沙湾,新疆,44.3333,85.6167,522.20,68
51358,乌兰乌苏,新疆,44.2833,85.8167,468.50,71
51359,玛纳斯,新疆,44.3167,86.20,471.40,62
51365,蔡家湖,新疆,44.20,87.5333,440.50,70
51367,呼图壁,新疆,44.1333,86.8167,522.10,71
51368,昌吉,新疆,44.1167,87.3167,515.70,74
51369,米泉,新疆,43.9667,87.65,600.30,70
51377,阜康,新疆,44.1667,87.9167,547,67
51378,吉木萨尔,新疆,44.0167,89.1667,734.90,70
51379,奇台,新疆,44.0167,89.5667,793.50,64
51430,察布查尔,新疆,43.8333,81.15,602.60,59
51431,伊宁,新疆,43.95,81.3333,662.50,53
51433,尼勒克,新疆,43.80,82.5167,1105.30,49
51434,伊宁县,新疆,43.9667,81.5333,770,44
51435,巩留,新疆,43.4667,82.2333,774.90,52
51436,新源,新疆,43.45,83.30,928.20,51
51437,昭苏,新疆,43.15,81.1333,1851,58
51438,特克斯,新疆,43.1833,81.7667,1210.40,49
51463,乌鲁木齐,新疆,43.7833,87.65,935,60
51465,小渠子,新疆,43.4833,87.10,1871.80,49
51467,巴仑台,新疆,42.7667,86.3333,1732.40,41
51468,天山大西沟,新疆,43.10,86.8333,3539,41
51469,乌鲁木齐牧试站,新疆,43.45,87.1833,1930,48
51470,天池,新疆,43.8833,88.1167,1942.50,36
51477,达坂城,新疆,43.35,88.3167,1103.50,44
51482,木垒,新疆,43.8333,90.2833,1271.50,49
51495,十三间房,新疆,43.2167,91.7333,721.40,26
51526,库米什,新疆,42.2333,88.2167,922.40,43
51542,巴音布鲁克,新疆,43.0333,84.15,2458,74
51559,和静,新疆,42.3167,86.40,1100.90,44
51567,焉耆,新疆,42.0833,86.5667,1055.30,47
51568,和硕,新疆,42.25,86.80,1085.40,46
51571,托克逊,新疆,42.80,88.6333,1,38
51572,吐鲁番东坎,新疆,42.8333,89.25,-48.70,32
51573,吐鲁番,新疆,42.9333,89.20,34.50,33
51581,鄯善,新疆,42.85,90.2333,398.60,33
51627,乌什,新疆,41.2167,79.2333,1395.80,42
51628,阿克苏,新疆,41.1667,80.2333,1103.80,45
51629,温宿,新疆,41.2667,80.2333,1132.70,43
51633,拜城,新疆,41.7833,81.90,1229.20,45
51636,新和,新疆,41.55,82.65,1009.80,39
51639,沙雅,新疆,41.2333,82.7833,980.40,33
51642,轮台,新疆,41.8167,84.2667,982,44
51644,库车,新疆,41.7167,82.9667,1081.90,40
51655,尉犁,新疆,41.35,86.2667,884.90,44
51656,库尔勒,新疆,41.75,86.1333,931.50,38
51701,吐尔尕特,新疆,40.5167,75.40,3504.40,68
51704,阿图什,新疆,39.7167,76.1667,1298.70,47
51705,乌恰,新疆,39.7167,75.25,2175.70,56
51707,伽师,新疆,39.50,76.7333,1208.60,44
51708,阿克陶,新疆,39.15,75.95,1325.10,42
51709,喀什,新疆,39.4667,75.9833,1289.40,48
51711,阿合奇,新疆,40.9333,78.45,1985.10,44
51716,巴楚,新疆,39.80,78.5667,1116.50,45
51717,岳普湖,新疆,39.25,76.7833,1206.30,49
51720,柯坪,新疆,40.50,79.05,1161.80,47
51722,阿瓦提,新疆,40.65,80.40,1044.30,47
51730,阿拉尔,新疆,40.55,81.2667,1012.20,34
51747,塔中,新疆,39,83.6667,1099.30,42
51765,铁干里克,新疆,40.6333,87.70,846,53
51777,若羌,新疆,39.0333,88.1667,887.70,49
51802,英吉沙,新疆,38.9333,76.1667,1297.50,51
51804,塔什库尔干,新疆,37.7667,75.2333,3090.10,47
51810,麦盖提,新疆,38.9167,77.6333,1178.20,59
51811,莎车,新疆,38.4333,77.2667,1231.20,50
51814,叶城,新疆,37.9167,77.40,1360.40,49
51815,泽普,新疆,38.20,77.2667,1274.70,47
51818,皮山,新疆,37.6167,78.2833,1375.40,51
51826,策勒,新疆,37.0167,80.80,1336.50,41
51827,墨玉,新疆,37.2833,79.7167,1326,48
51828,和田,新疆,37.1333,79.9333,1375,46
51829,洛浦,新疆,37.0833,80.1667,1347.90,43
51839,民丰,新疆,37.0667,82.7167,1409.50,38
51855,且末,新疆,38.15,85.55,1247.20,41
51886,茫崖,青海,38.25,90.85,2944.80,21
51931,于田,新疆,36.85,81.65,1422,38
52101,巴里坤,新疆,43.60,93.05,1677.20,44
52112,淖毛湖,新疆,43.7667,95.1333,479,14
52118,伊吾,新疆,43.2667,94.70,1728.60,30
52203,哈密,新疆,42.8167,93.5167,737.20,36
52267,额济纳旗,内蒙古,41.95,101.0667,940.50,14
52313,红柳河,新疆,41.5333,94.6667,1573.80,48
52323,马鬃山,甘肃,41.80,97.0333,1770.40,22
52418,敦煌,甘肃,40.15,94.6833,1139,23
52424,瓜州,甘肃,40.5333,95.7833,1170.90,20
52436,玉门镇,甘肃,40.2667,97.0333,1526,25
52446,鼎新,甘肃,40.30,99.5167,1177.40,20
52447,金塔,甘肃,40,98.8833,1270.50,20
52495,巴彦诺尔公,内蒙古,40.1667,104.80,1323.90,13
52515,肃北,甘肃,39.5167,94.8667,2137.20,26
52533,酒泉,甘肃,39.7667,98.4833,1477.20,24
52546,高台,甘肃,39.3667,99.8333,1332.20,30
52557,临泽,甘肃,39.15,100.1667,1453.70,31
52575,雅布赖,内蒙古,39.4167,102.7833,1239.50,14
52576,阿右旗,内蒙古,39.2167,101.6833,1510.10,22
52602,冷湖,青海,38.75,93.3333,2770,29
52607,乌斯太,内蒙古,39.4333,106.65,1252.60,17
52633,托勒,青海,38.8167,98.4167,3367,43
52643,肃南,甘肃,38.8333,99.6167,2311.80,60
52645,野牛沟,青海,38.4167,99.5833,3320,71
52652,张掖,甘肃,39.0833,100.2833,1461.10,30
52656,民乐,甘肃,38.4333,100.8167,2281.40,72
52657,祁连,青海,38.1833,100.25,2787.40,37
52661,山丹,甘肃,38.80,101.0833,1765.50,31
52674,永昌,甘肃,38.2333,101.9667,1976.90,48
52679,武威,甘肃,37.9167,102.6667,1531.50,26
52681,民勤,甘肃,38.6333,103.0833,1367.50,20
52707,小灶火,青海,36.80,93.6833,2767,22
52713,大柴旦,青海,37.85,95.35,3173.20,13
52737,德令哈,青海,37.3667,97.3833,2981.50,22
52745,天峻,青海,37.30,99.0167,3417.10,12
52754,刚察,青海,37.3333,100.1333,3301.50,26
52765,门源,青海,37.3833,101.6167,2850,19
52784,古浪,甘肃,37.4667,102.90,2072.40,34
52787,乌鞘岭,甘肃,37.20,102.8667,3045.10,35
52797,景泰,甘肃,37.1833,104.05,1630.90,23
52818,格尔木,青海,36.4167,94.9167,2807.60,22
52825,诺木洪,青海,36.4333,96.4333,2790.40,23
52833,乌兰,青海,36.9333,98.4833,2950,22
52836,都兰,青海,36.30,98.10,3189,29
52842,茶卡,青海,36.7833,99.0833,3087.60,18
52853,海晏,青海,36.90,100.9833,3010,14
52855,湟源,青海,36.6833,101.25,2675,24
52856,共和,青海,36.2667,100.6167,2835,28
52862,大通,青海,36.95,101.6833,2450,24
52863,互助,青海,36.8167,101.95,2480,21
52866,西宁,青海,36.7333,101.75,2295.20,21
52868,贵德,青海,36.0333,101.4333,2237.10,20
52869,湟中,青海,36.50,101.5833,2667.50,27
52874,乐都,青海,36.4833,102.40,1980.90,24
52875,平安,青海,36.50,102.10,2125,22
52876,民和,青海,36.3333,102.8333,1813.90,25
52877,化隆,青海,36.10,102.25,2834.70,25
52881,天祝,甘肃,36.9833,103.1833,2484.80,29
52884,皋兰,甘肃,36.35,103.95,1668.50,25
52885,永登,甘肃,36.75,103.25,2118.80,28
52889,兰州,甘肃,36.05,103.8833,1517.20,25
52895,靖远,甘肃,36.5667,104.6833,1398.20,25
52896,白银,甘肃,36.55,104.15,1738.70,28
52908,五道梁,青海,35.2167,93.0833,4612.20,29
52943,兴海,青海,35.5833,99.9833,3323.20,14
52955,贵南,青海,35.5833,100.7333,3120,17
52957,同德,青海,35.25,100.60,3148.20,13
52963,尖扎,青海,35.9333,102.0167,2085.70,20
52968,泽库,青海,35.0333,101.4667,3662.80,16
52972,循化,青海,35.85,102.45,1921,23
52974,同仁,青海,35.5167,102.0167,2491.40,23
52978,夏河,甘肃,35.20,102.5167,2929.40,23
52980,永靖,甘肃,35.9667,103.30,1648,25
52981,东乡,甘肃,35.6833,103.3833,2421,40
52982,广河,甘肃,35.4833,103.55,1953.20,38
52983,榆中,甘肃,35.8667,104.15,1874.40,25
52984,临夏,甘肃,35.5833,103.1833,1917.20,31
52985,和政,甘肃,35.4167,103.3333,2162.80,41
52986,临洮,甘肃,35.3667,103.8667,1893.80,30
52988,康乐,甘肃,35.3667,103.7167,2015.80,32
52993,会宁,甘肃,35.6833,105.0667,1739.40,26
52995,安定,甘肃,35.5833,104.6167,1897.20,26
52996,华家岭,甘肃,35.3833,105.0167,2450.60,38
52998,渭源,甘肃,35.1333,104.20,2111,41
53068,二连浩特,内蒙古,43.6333,111.9333,963.10,37
53083,那仁宝力格,内蒙古,44.6167,114.15,1181.60,46
53149,满都拉气象站,内蒙古,42.5333,110.1333,1225.20,35
53192,阿巴嘎旗,内蒙古,44.0167,114.95,1126.10,50
53195,苏尼特左旗,内蒙古,43.85,113.6333,1036.70,43
53231,海力素,内蒙古,41.40,106.40,1509.60,22
53272,苏尼特右旗,内蒙古,42.75,112.6333,1104.90,40
53276,朱日和,内蒙古,42.40,112.90,1150.80,35
53289,镶黄旗,内蒙古,42.2333,113.8333,1322.10,58
53324,乌拉特后旗,内蒙古,41.0667,107.05,1035.30,29
53336,乌拉特中旗,内蒙古,41.5667,108.5167,1288,43
53337,五原,内蒙古,41.10,108.2667,1023.70,36
53343,白云鄂博,内蒙古,41.7667,109.9667,1612.20,65
53348,大佘太,内蒙古,41.0167,109.1333,1078.70,32
53352,达茂旗气象局,内蒙古,41.70,110.4333,1376.60,46
53357,固阳县气象局,内蒙古,41.0333,110.05,1360.40,46
53362,四子王,内蒙古,41.5333,111.6833,1490.10,58
53367,希拉穆仁,内蒙古,41.3167,111.2333,1602.30,54
53368,武川县,内蒙古,41.0833,111.4667,1637.30,47
53378,察右中旗,内蒙古,41.2833,112.6167,1737.30,59
53384,察右后旗,内蒙古,41.45,113.1833,1423.50,53
53385,商都,内蒙古,41.5667,113.55,1385.20,50
53391,化德,内蒙古,41.90,114,1482.70,66
53392,康保,河北,41.85,114.60,1422.40,56
53397,尚义,河北,41.10,113.9833,1376.50,52
53399,张北,河北,41.15,114.70,1393.30,57
53419,磴口,内蒙古,40.3333,107,1055.30,37
53420,杭锦后旗,内蒙古,40.85,107.1167,1024,32
53433,乌拉特前旗,内蒙古,40.7333,108.65,1020.40,37
53446,包头市,内蒙古,40.5333,109.8833,1004.70,30
53455,土右旗气象局,内蒙古,40.55,110.5333,998.60,27
53457,达拉特旗,内蒙古,40.40,110.0333,1011,30
53463,呼和浩特,内蒙古,40.85,111.5667,1153.50,33
53464,土默特左旗,内蒙古,40.7167,111.1667,1042.70,27
53466,呼和浩特郊区站,内蒙古,40.75,111.70,1045.40,30
53467,托克托县,内蒙古,40.2667,111.1833,1016,30
53469,和林格尔县,内蒙古,40.40,111.8167,1166.70,32
53472,卓资,内蒙古,40.8667,112.5667,1451.70,39
53475,凉城,内蒙古,40.5167,112.4667,1268.90,31
53478,右玉,山西,40,112.45,1345.80,32
53480,集宁,内蒙古,41.0333,113.0667,1419.30,39
53481,察右前旗,内蒙古,40.80,113.2167,1316.80,43
53483,兴和,内蒙古,40.8667,113.8333,1268.70,48
53484,丰镇,内蒙古,40.45,113.15,1191.50,36
53486,阳高,山西,40.3667,113.7667,1050.30,30
53487,大同,山西,40.0833,113.4167,1052.60,32
53488,大同县,山西,40.0333,113.5833,1034.30,27
53490,天镇,山西,40.4333,114.05,1014.70,31
53491,怀安,河北,40.6667,114.3833,837.70,36
53492,阳原,河北,40.10,114.15,937.60,31
53498,宣化,河北,40.5667,115.0333,629.30,33
53499,万全,河北,40.7667,114.7333,755.20,35
53502,吉兰太,内蒙古,39.7833,105.75,1031.80,20
53505,孪井滩,内蒙古,37.8833,105.40,1380.70,17
53512,乌海,内蒙古,39.80,106.80,1105.60,14
53513,临河,内蒙古,40.7333,107.3667,1041.10,33
53517,石炭井,宁夏,39.2667,106.3333,1464.50,18
53518,石嘴山,宁夏,39.0333,106.35,1117.70,20
53519,惠农,宁夏,39.2167,106.7667,1092.50,14
53522,伊克乌素,内蒙古,40.05,107.8333,1180.30,36
53529,鄂托克旗,内蒙古,39.0833,107.9667,1381.40,26
53533,杭锦旗,内蒙古,39.85,108.7333,1389.50,35
53543,东胜,内蒙古,39.8333,109.9833,1461.90,37
53545,伊金霍洛旗,内蒙古,39.5667,109.7167,1367,33
53547,乌审召,内蒙古,39.10,109.0333,1312.20,26
53553,准格尔旗,内蒙古,39.8667,111.2167,1221.40,35
53562,清水河县,内蒙古,39.9167,111.6667,1187.40,34
53564,河曲,山西,39.3833,111.15,861.50,29
53565,偏关,山西,39.4333,111.50,1051.70,27
53567,府谷,陕西,39.0333,111.0833,981,26
53573,左云,山西,40,112.70,1336.30,30
53574,平鲁,山西,39.5167,112.2667,1409.40,31
53575,神池,山西,39.10,112.20,1525.40,33
53576,山阴,山西,39.50,112.8167,1045,23
53577,宁武,山西,39,112.30,1437.40,29
53578,朔州,山西,39.3667,112.4333,1114.80,22
53579,代县,山西,39.0167,112.90,859.70,21
53580,怀仁,山西,39.8167,113.10,1044.60,29
53582,浑源,山西,39.7167,113.6667,1079.20,27
53584,应县,山西,39.5667,113.1667,1000.70,26
53585,繁峙,山西,39.1667,113.2667,933.90,24
53588,五台山,山西,38.95,113.5167,2208.30,10
53590,广灵,山西,39.75,114.2667,977.80,28
53593,蔚县,河北,39.8333,114.5667,909.50,27
53594,灵丘,山西,39.45,114.1833,938.70,21
53596,顺平,河北,38.85,115.1333,52.20,11
53599,涞源,河北,39.3667,114.6833,884.40,22
53602,阿拉善左旗,内蒙古,38.8333,105.6667,1561.40,13
53603,沙湖,宁夏,38.8333,106.3667,1095,20
53610,贺兰,宁夏,38.5667,106.35,1106.20,16
53611,平罗,宁夏,38.8833,106.55,1098.70,19
53612,吴忠,宁夏,37.9833,106.1833,1128.80,14
53614,银川,宁夏,38.4667,106.20,1110.90,15
53615,陶乐,宁夏,38.80,106.70,1101.60,18
53617,青铜峡,宁夏,38.0333,106.0833,1118,15
53618,永宁,宁夏,38.2833,106.25,1113.70,16
53619,灵武,宁夏,38.1167,106.30,1115.90,14
53644,乌审旗,内蒙古,38.60,108.8333,1307.20,21
53646,榆林,陕西,38.2667,109.7833,1157,18
53651,神木,陕西,38.8167,110.4667,1098,23
53658,佳县,陕西,38.0333,110.4833,894.40,19
53659,临县,山西,37.9667,111,1163.30,20
53660,保德,山西,39.0167,111.0833,894.40,26
53662,岢岚,山西,38.7167,111.5833,1396.70,31
53663,五寨,山西,38.9167,111.8167,1401,31
53664,兴县,山西,38.4667,111.1333,1012.60,24
53665,岚县,山西,38.2833,111.65,1185.10,16
53666,静乐,山西,38.35,111.9333,1212.20,19
53669,娄烦,山西,38.0833,111.80,1150.30,11
53673,原平,山西,38.7333,112.7167,828.20,16
53674,忻府区,山西,38.40,112.70,869.90,19
53676,定襄,山西,38.50,112.9833,759.40,15
53677,太原北郊,山西,37.9333,112.4833,806.50,15
53678,阳曲,山西,38.0667,112.65,897.10,17
53679,太原南郊,山西,37.7333,112.55,775.40,16
53680,灵寿,河北,38.30,114.3833,108.90,13
53681,五台县豆村,山西,38.8333,113.3667,1096.20,18
53682,曲阳,河北,38.6333,114.6833,104.10,13
53685,盂县,山西,38.0667,113.4167,953.20,11
53687,平定,山西,37.7833,113.6333,753,8
53688,行唐,河北,38.4167,114.55,100.30,12
53689,晋州,河北,38.0167,115.0667,42.40,16
53690,阜平,河北,38.85,114.1833,281.90,12
53691,正定,河北,38.15,114.5667,71,11
53692,唐县,河北,38.7333,114.9833,66.50,13
53693,井陉,河北,38.0333,114.1333,255.50,18
53694,平山,河北,38.2667,114.2167,131,19
53695,新乐,河北,38.35,114.6833,70.80,12
53696,定州,河北,38.5167,115,54.80,16
53697,藁城,河北,38.0333,114.8333,53.50,17
53698,石家庄,河北,38.0667,114.35,103.60,16
53699,无极,河北,38.1833,114.95,45.40,17
53704,中卫,宁夏,37.5333,105.1833,1225.70,18
53705,中宁,宁夏,37.4833,105.6833,1183.40,18
53707,兴仁,宁夏,36.9333,105.25,1697.90,23
53723,盐池,宁夏,37.80,107.3833,1349.30,17
53725,定边,陕西,37.5833,107.5833,1360.30,15
53727,麻黄山,宁夏,37.1667,107.1167,1712.50,22
53730,鄂托克前旗,内蒙古,38.1833,107.4833,1333.30,18
53732,河南,内蒙古,37.85,108.7167,1209.90,12
53735,靖边,陕西,37.6167,108.80,1336.70,12
53738,吴旗,陕西,36.9167,108.1667,1331.40,15
53740,横山,陕西,37.9333,109.2333,1111,15
53748,子长,陕西,37.1833,109.70,1063.30,11
53750,米脂,陕西,37.7667,110.1833,931,16
53751,子洲,陕西,37.60,110.05,894.60,14
53753,柳林,山西,37.4333,110.8833,860.10,17
53754,绥德,陕西,37.50,110.2167,929.70,15
53756,吴堡,陕西,37.5167,110.7167,744,16
53757,清涧,陕西,37.1167,110.1167,938,12
53759,石楼,山西,36.9833,110.8333,1109.10,16
53760,方山,山西,37.8833,111.2333,1212.40,24
53763,太原古交区,山西,37.9167,112.1667,1006.80,10
53764,离石,山西,37.50,111.10,950.80,18
53767,中阳,山西,37.3333,111.1667,1213.10,21
53768,孝义,山西,37.15,111.75,773.40,9
53769,汾阳,山西,37.25,111.7833,747.70,10
53770,祁县,山西,37.35,112.35,768.80,14
53771,文水,山西,37.4167,112.05,750,14
53772,太原,山西,37.6167,112.5833,776.30,16
53773,临漳,河北,36.3333,114.6167,64.60,28
53774,清徐,山西,37.6167,112.3333,773.70,16
53775,太谷,山西,37.4333,112.5333,781.90,14
53776,榆次,山西,37.6833,112.7667,831.20,11
53777,交城,山西,37.5333,112.15,759.30,14
53778,平遥,山西,37.1667,112.2167,780.30,10
53780,寿阳,山西,37.90,113.15,1066.10,14
53781,沙河,河北,36.8667,114.4667,67.90,25
53782,阳泉,山西,37.9333,113.6167,767.20,11
53783,昔阳,山西,37.60,113.70,876.20,16
53784,赵县,河北,37.75,114.7833,38.50,14
53785,柏乡,河北,37.5167,114.6667,35,23
53786,左权,山西,37.0833,113.3667,1134.60,17
53787,榆社,山西,37.0667,112.9833,1041.40,15
53788,和顺,山西,37.3333,113.5667,1265.70,10
53789,栾城,河北,37.8833,114.6333,52.90,15
53790,高邑,河北,37.60,114.6167,48.90,18
53791,元氏,河北,37.7667,114.5167,66.40,16
53792,临城,河北,37.45,114.4833,113,25
53794,隆尧,河北,37.35,114.75,33.10,21
53795,赞皇,河北,37.65,114.3667,137.40,17
53796,宁晋,河北,37.6167,114.8833,30.60,15
53797,内邱,河北,37.2833,114.5167,73.90,24
53798,邢台,河北,37.0667,114.50,77.30,26
53799,巨鹿,河北,37.2333,114.9833,25.90,21
53806,海原,宁夏,36.5667,105.65,1854.20,28
53810,同心,宁夏,36.9667,105.90,1339.30,17
53817,固原,宁夏,36,106.2667,1753,20
53821,环县,甘肃,36.5667,107.30,1255.60,18
53829,庆城,甘肃,35.9833,107.90,1093.70,17
53832,志丹,陕西,36.7667,108.7667,1218.80,15
53841,安塞,陕西,36.8833,109.3167,1068.30,8
53845,延安,陕西,36.5833,109.45,1180.50,11
53848,甘泉,陕西,36.2667,109.35,1005.50,11
53850,延川,陕西,36.8833,110.1833,804.90,10
53852,永和,山西,36.7667,110.6333,916.60,12
53853,隰县,山西,36.70,110.95,1052.70,14
53854,延长,陕西,36.5833,110.0667,804.80,7
53856,大宁,山西,36.4667,110.75,765.90,10
53857,宜川,陕西,36.0667,110.1833,840.30,8
53859,吉县,山西,36.10,110.6667,851.30,8
53860,交口,山西,36.9833,111.1667,1406.70,16
53861,襄汾,山西,35.8833,111.3833,463.50,8
53862,灵石,山西,36.85,111.80,811.70,9
53863,介休,山西,37.0333,111.9167,743.90,11
53864,蒲县,山西,36.40,111.10,1030.60,13
53865,汾西,山西,36.65,111.55,1011.90,10
53866,洪洞,山西,36.2333,111.6667,462.80,8
53868,临汾,山西,36.0667,111.50,449.50,4
53869,霍州,山西,36.5833,111.70,550,8
53871,武乡,山西,36.8333,112.85,964.10,15
53872,沁县,山西,36.7667,112.6833,960.70,10
53873,长子,山西,36.10,112.8667,951.10,15
53874,古县,山西,36.25,111.90,648.70,8
53875,沁源,山西,36.5167,112.35,1000,7
53877,安泽,山西,36.1667,112.25,860.10,10
53878,黎城,山西,36.5167,113.3833,767.90,39
53879,屯留,山西,36.3167,112.8833,952.30,11
53880,潞城,山西,36.3333,113.2333,947.60,18
53881,韦州,宁夏,37.2833,106.4833,1382.20,19
53882,长治,山西,36.05,113.0667,991.80,21
53883,任县,河北,37.1333,114.70,36.50,26
53884,襄垣,山西,36.5167,113.0333,877.90,10
53885,壶关,山西,36.1167,113.20,1122,22
53886,涉县,河北,36.5667,113.6667,470.40,30
53888,平顺,山西,36.20,113.4333,1089.20,25
53889,林州,河南,36.0667,113.8167,306.80,28
53890,武安,河北,36.6667,114.10,280.10,33
53891,南和,河北,37.0167,114.6833,43,25
53892,邯郸,河北,36.6167,114.4667,66.60,25
53893,曲周,河北,36.7667,114.95,39.60,24
53894,峰峰,河北,36.40,114.20,149.30,28
53895,永年,河北,36.7833,114.50,60.60,27
53896,魏县,河北,36.35,114.95,50.10,25
53897,磁县,河北,36.3833,114.3833,69.70,29
53898,安阳,河南,36.05,114.40,62.90,28
53899,广平,河北,36.4833,114.9667,48.50,24
53903,西吉,宁夏,35.9667,105.7167,1916.50,26
53906,静宁,甘肃,35.5167,105.7167,1656.40,23
53908,通渭,甘肃,35.2167,105.2333,1768.20,28
53910,六盘山,宁夏,35.6667,106.20,2841.20,39
53914,隆德,宁夏,35.6167,106.1167,2078.60,25
53915,崆峒,甘肃,35.55,106.6667,1346.60,22
53916,泾源,宁夏,35.50,106.3167,1948.60,25
53917,庄浪,甘肃,35.2167,106.0667,1631,28
53923,西峰,甘肃,35.7333,107.6333,1421,21
53924,灵台,甘肃,35.0667,107.6167,966.60,19
53925,镇原,甘肃,35.6833,107.1833,1172.50,21
53926,泾川,甘肃,35.35,107.35,1028.80,18
53927,华亭,甘肃,35.20,106.6167,1477.60,23
53928,崇信,甘肃,35.30,107.0167,1149.10,18
53929,长武,陕西,35.20,107.80,1206.50,20
53930,华池,甘肃,36.45,107.9833,1271,18
53931,富县,陕西,36,109.3667,984,13
53934,合水,甘肃,35.7833,107.9833,1274.20,20
53935,正宁,甘肃,35.4833,108.40,1481.90,20
53937,宁县,甘肃,35.5167,107.9167,979.40,20
53938,旬邑,陕西,35.1667,108.30,1277,20
53941,白水,陕西,35.1833,109.5833,804.40,12
53942,洛川,陕西,35.7667,109.4167,1155.90,15
53944,黄陵,陕西,35.5667,109.25,863,12
53945,宜君,陕西,35.4333,109.0667,1395.20,17
53946,黄龙,陕西,35.60,109.8167,1091,12
53947,铜川,陕西,35.0833,109.0667,978.90,17
53948,蒲城,陕西,34.95,109.5833,499.20,11
53949,澄城,陕西,35.1833,109.9167,679.10,11
53950,合阳,陕西,35.2333,110.15,708.80,14
53953,乡宁,山西,35.9667,110.85,965.30,10
53954,稷山,山西,35.6167,110.9667,433.50,8
53955,韩城,陕西,35.4667,110.45,458.10,9
53956,万荣,山西,35.40,110.8333,588.40,8
53957,河津,山西,35.6167,110.7167,459.20,7
53958,临猗,山西,35.1333,110.7833,387.90,8
53959,运城,山西,35.05,111.05,365,8
53961,曲沃,山西,35.65,111.4833,472.60,10
53962,翼城,山西,35.7333,111.70,584.50,9
53963,侯马,山西,35.65,111.3667,433.80,12
53964,新绛,山西,35.6167,111.2167,430.80,7
53965,绛县,山西,35.5167,111.5667,761,15
53966,浮山,山西,35.9833,111.8333,817.20,11
53967,闻喜,山西,35.3333,111.20,468.30,9
53968,垣曲,山西,35.2833,111.6667,505,9
53970,沁水,山西,35.70,112.20,887.30,12
53972,沁阳,河南,35.1167,112.9167,119.60,43
53973,高平,山西,35.7667,112.95,837.30,12
53974,淇县,河南,35.6167,114.1833,72.30,32
53975,阳城,山西,35.4833,112.40,659.50,9
53976,晋城,山西,35.50,112.8667,752.60,18
53978,济源,河南,35.0833,112.6333,140.10,45
53979,博爱,河南,35.15,113.0833,120,41
53980,肥乡,河北,36.55,114.80,50.20,24
53981,陵川,山西,35.7833,113.2667,1311.60,23
53982,焦作,河南,35.2333,113.2667,112,33
53983,封丘,河南,35.0333,114.4167,69.60,36
53984,修武,河南,35.2333,113.4667,82.70,31
53985,辉县,河南,35.50,113.8167,140.70,29
53986,新乡,河南,35.3167,113.8833,73.20,26
53987,武陟,河南,35.10,113.4167,91,30
53988,获嘉,河南,35.2667,113.6667,77.60,29
53989,原阳,河南,35.05,113.95,76.60,35
53991,汤阴,河南,35.9167,114.3333,93,30
53992,浚县,河南,35.65,114.5167,58.20,29
53993,内黄,河南,35.9333,114.9167,51.60,24
53994,卫辉,河南,35.3833,114.0667,70,31
53995,滑县,河南,35.55,114.50,62.50,29
53996,成安,河北,36.45,114.65,57.90,25
53997,延津,河南,35.15,114.1833,71.10,33
53998,长垣,河南,35.20,114.65,61.60,31
54012,西乌珠穆沁,内蒙古,44.5833,117.60,1001.70,53
54024,富河,内蒙古,44.45,119.30,710,38
54026,扎鲁特,内蒙古,44.5667,120.90,265,23
54027,巴林左旗,内蒙古,43.9833,119.40,486.20,21
54031,高力板,内蒙古,44.90,121.8167,198.30,26
54039,舍伯吐,内蒙古,44.0333,122.0167,181.60,28
54041,通榆,吉林,44.80,123.0667,150,40
54047,科左中旗,内蒙古,44.1333,123.2833,145.80,37
54049,长岭,吉林,44.25,123.9667,188.90,48
54063,扶余,吉林,44.9667,126,196.80,52
54064,农安,吉林,44.3833,125.15,170.20,53
54065,德惠,吉林,44.5333,125.65,169.10,55
54069,九台,吉林,44.1667,125.80,174.50,60
54072,榆树,吉林,44.85,126.5167,196.50,64
54076,舒兰,吉林,44.3833,126.9333,268.10,60
54080,五常,黑龙江,44.90,127.15,194.60,59
54092,海林,黑龙江,44.60,129.40,292.10,58
54093,穆棱,黑龙江,44.9333,130.55,266.30,52
54094,牡丹江,黑龙江,44.5667,129.60,241.40,57
54096,绥芬河,黑龙江,44.3833,131.1667,567.80,42
54098,宁安,黑龙江,44.3333,129.4667,267.90,52
54099,东宁,黑龙江,44.0833,131.1333,148.60,49
54102,锡林浩特,内蒙古,43.95,116.1167,1003,54
54113,巴林右旗,内蒙古,43.5333,118.65,621.40,24
54115,林西县,内蒙古,43.6333,118.0333,825,23
54117,克什克腾旗,内蒙古,43.25,117.5333,1003.30,19
54122,阿鲁科尔沁旗,内蒙古,43.8833,120.05,374.90,20
54132,青龙山,内蒙古,42.40,121.0667,400,30
54134,开鲁,内蒙古,43.60,121.2833,241,27
54135,通辽,内蒙古,43.60,122.2667,178.70,34
54142,双辽,吉林,43.50,123.5333,114.90,46
54154,梨树,吉林,43.35,124.30,160.20,53
54155,孤家子,吉林,43.6667,124.2333,144.20,48
54156,公主岭,吉林,43.5167,124.80,200.40,57
54157,四平,吉林,43.1667,124.3333,165.70,56
54161,长春,吉林,43.90,125.2167,236.80,48
54164,伊通,吉林,43.35,125.2833,248.10,54
54165,双阳,吉林,43.55,125.6333,219.50,58
54169,烟筒山,吉林,43.30,126.0167,271.60,63
54171,永吉,吉林,43.70,126.5167,229.50,66
54172,吉林城郊,吉林,43.8667,126.5333,290.30,62
54181,蛟河,吉林,43.70,127.3333,295,58
54186,敦化,吉林,43.3667,128.20,524.90,54
54187,安图,吉林,43.1167,128.9167,366.60,58
54192,罗子沟,吉林,43.70,130.2667,384.60,70
54195,汪清,吉林,43.30,129.7833,244.80,50
54204,正镶白旗,内蒙古,42.30,115,1346.30,52
54205,正蓝旗,内蒙古,42.2333,116,1315.50,50
54208,多伦县,内蒙古,42.1833,116.4667,1245.40,48
54213,翁牛特旗,内蒙古,42.9333,119.0167,634.30,25
54214,岗子,内蒙古,42.5833,118.4167,960,26
54218,赤峰,内蒙古,42.30,118.8333,668.60,22
54223,奈曼,内蒙古,42.85,120.65,362.90,23
54225,敖汉旗,内蒙古,42.2833,119.9167,588.20,28
54226,宝国吐,内蒙古,42.3333,120.70,400.50,25
54231,科左后旗,内蒙古,42.9667,122.35,248.10,44
54234,库伦,内蒙古,42.7333,121.75,297.80,30
54236,彰武,辽宁,42.3833,122.55,79.40,38
54237,阜新,辽宁,42.0667,121.75,167.80,27
54243,昌图,辽宁,42.7833,124.1167,165.10,54
54244,康平,辽宁,42.75,123.3333,118.60,47
54245,法库,辽宁,42.50,123.40,97.80,48
54248,新城子,辽宁,42.0333,123.5333,61.60,54
54249,铁岭,辽宁,42.30,123.8667,85.40,51
54252,西丰,辽宁,42.7333,124.75,196.10,63
54254,开原,辽宁,42.5333,124.05,98.20,54
54259,清原,辽宁,42.10,124.9167,237.20,60
54260,辽源,吉林,42.9167,125.0833,252.90,65
54261,东丰,吉林,42.6667,125.4667,345.30,69
54263,磐石,吉林,42.9667,126.05,336.70,64
54266,梅河口,吉林,42.5333,125.6333,340.50,67
54267,柳河,吉林,42.25,125.7333,362.30,65
54273,桦甸,吉林,42.9833,126.75,263.30,64
54274,辉南,吉林,42.6833,125.9833,306.70,59
54276,靖宇,吉林,42.40,126.80,570,76
54279,江源,吉林,42.05,126.5833,544.40,67
54284,东岗,吉林,42.15,127.50,774.20,67
54285,二道,吉林,42.4167,128.1167,721.40,65
54286,和龙,吉林,42.5333,129,475.60,48
54290,龙井,吉林,42.7667,129.40,241.10,56
54291,珲春,吉林,42.90,130.2833,36.50,50
54292,延吉,吉林,42.8667,129.50,257.30,59
54293,图们,吉林,42.95,129.8333,142.80,43
54301,沽源,河北,41.6667,115.6667,1412,53
54304,崇礼,河北,40.95,115.2667,1239.80,46
54305,太仆寺旗,内蒙古,41.8833,115.2667,1468.90,54
54308,丰宁,河北,41.20,116.6333,735.10,32
54311,围场,河北,41.9667,117.7667,892.70,16
54313,喀喇沁旗,内蒙古,41.9333,118.70,733.70,24
54316,八里罕,内蒙古,41.5167,118.75,679.30,23
54318,隆化,河北,41.3167,117.7333,561.60,31
54319,平泉,河北,41,118.6667,502.30,40
54320,宁城县,内蒙古,41.60,119.30,544.20,30
54321,建平镇,辽宁,41.8667,119.6333,661.80,38
54323,北票,辽宁,41.8167,120.7833,253.80,23
54324,朝阳,辽宁,41.55,120.4333,174.30,21
54325,羊山,辽宁,41.1833,120.35,183.80,26
54326,建平县,辽宁,41.3833,119.70,422,27
54327,凌源,辽宁,41.2333,119.35,417.10,28
54328,喀左,辽宁,41.0833,119.7167,296.80,29
54330,凌海,辽宁,41.1333,121.3333,45.20,26
54331,北镇,辽宁,41.5833,121.7667,77.10,32
54332,辽中,辽宁,41.5167,122.7167,12.20,43
54333,新民,辽宁,41.9667,122.85,30.90,43
54334,义县,辽宁,41.5167,121.25,74.20,24
54335,黑山,辽宁,41.6833,122.0833,37.50,30
54336,台安,辽宁,41.4167,122.4167,8.30,38
54337,锦州,辽宁,41.1333,121.1167,65.90,25
54338,盘山,辽宁,41.2833,121.95,3.20,34
54339,鞍山,辽宁,41.0833,123,77.30,47
54340,苏家屯,辽宁,41.6667,123.3167,35.80,48
54342,沈阳,辽宁,41.7333,123.5167,49,50
54345,辽阳县,辽宁,41.20,123.0667,30.70,52
54346,本溪,辽宁,41.3167,123.7833,185.40,57
54347,辽阳,辽宁,41.2333,123.1667,24.80,51
54348,灯塔,辽宁,41.4167,123.3333,36.80,56
54349,本溪县,辽宁,41.30,124.1333,258.90,64
54351,抚顺,辽宁,41.9167,124.0833,118.50,57
54353,新宾,辽宁,41.7333,125.05,328.40,64
54362,通化县,吉林,41.6667,125.7333,380.10,67
54363,通化,吉林,41.6833,125.90,402.90,68
54365,桓仁,辽宁,41.2833,125.35,245.50,56
54371,白山,吉林,41.9333,126.4333,520.60,68
54374,临江,吉林,41.80,126.8833,379.70,57
54377,集安,吉林,41.15,126.2167,225.10,51
54386,长白,吉林,41.4167,128.1833,775,59
54398,顺义,北京,40.1333,116.6167,28.60,19
54399,海淀,北京,39.9833,116.2833,45.80,17
54401,张家口,河北,40.7667,114.9167,772.80,35
54404,赤城,河北,40.8833,115.8333,867.60,36
54405,怀来,河北,40.4167,115.50,570.90,29
54406,延庆,北京,40.45,115.9667,487.90,24
54408,涿鹿,河北,40.3833,115.2167,529.60,27
54410,佛爷顶,北京,40.60,116.1333,1224.70,40
54412,汤河口,北京,40.7333,116.6333,331.60,19
54416,密云,北京,40.3833,116.8667,71.80,17
54419,怀柔,北京,40.3667,116.6333,75.70,17
54420,滦平,河北,40.9333,117.3333,529,28
54421,密云上甸子,北京,40.65,117.1167,293.30,21
54423,承德,河北,40.9667,117.9167,422.30,28
54424,平谷,北京,40.1667,117.1167,32.10,19
54425,兴隆,河北,40.40,117.4667,633.20,30
54428,蓟县,天津,40.0333,117.40,15.70,18
54429,遵化,河北,40.20,117.95,54.90,21
54430,承德县,河北,40.7667,118.15,269.20,26
54431,通州,北京,39.9167,116.6333,43.30,20
54432,宽城,河北,40.60,118.4833,304.70,26
54433,朝阳,北京,39.95,116.50,35.30,18
54434,迁西,河北,40.1667,118.3333,131.60,26
54436,青龙,河北,40.4167,118.95,254.30,27
54437,滦南,河北,39.50,118.65,17.90,31
54438,卢龙,河北,39.8833,118.8833,65,31
54439,迁安,河北,40.0167,118.7167,50.90,25
54449,秦皇岛,河北,39.85,119.5167,2.40,22
54452,建昌,辽宁,40.80,119.8167,365.50,31
54453,连山区,辽宁,40.7833,120.8833,38.50,25
54454,绥中,辽宁,40.3333,120.30,29,28
54455,兴城,辽宁,40.6167,120.65,20.50,23
54470,大洼,辽宁,41.0167,122.0667,5.50,35
54471,营口,辽宁,40.65,122.1667,3.80,40
54472,海城,辽宁,40.8833,122.7167,25.30,56
54474,盖州,辽宁,40.4167,122.35,24.80,45
54475,大石桥,辽宁,40.6167,122.4833,11.50,48
54476,熊岳,辽宁,40.1667,122.15,20.40,51
54483,草河口,辽宁,40.8833,123.90,233.60,54
54486,岫岩,辽宁,40.2833,123.2833,79.80,48
54493,宽甸,辽宁,40.7167,124.7833,260.10,47
54494,凤城,辽宁,40.4667,124.0667,72.60,48
54497,丹东,辽宁,40.05,124.3333,13.80,44
54499,昌平,北京,40.2167,116.2167,76.20,19
54501,斋堂,北京,39.9667,115.6833,440.30,20
54502,涿州,河北,39.4833,116.0333,29.30,16
54503,容城,河北,39.0667,115.8167,12.80,16
54505,门头沟,北京,39.9167,116.1167,92.70,18
54506,高碑店,河北,39.3167,115.95,24.60,16
54507,易县,河北,39.3333,115.5167,49.30,16
54510,大厂,河北,39.90,116.9833,16.90,20
54511,北京,北京,39.80,116.4667,31.30,18
54512,固安,河北,39.4167,116.2833,21.40,16
54513,石景山,北京,39.95,116.20,65.60,11
54514,丰台,北京,39.8667,116.25,55.20,13
54515,廊坊,河北,39.50,116.70,13.70,20
54518,霸州,河北,39.1667,116.40,8.90,19
54519,永清,河北,39.30,116.4833,12.20,20
54520,三河,河北,39.9667,117.0833,18.10,18
54521,香河,河北,39.7667,116.9833,13,20
54522,玉田,河北,39.8833,117.7333,14.40,24
54523,武清,天津,39.3833,117.0167,4.50,20
54525,宝坻,天津,39.7333,117.2833,5.10,21
54526,东丽区,天津,39.0833,117.3333,1.90,19
54527,天津,天津,39.0833,117.05,3.50,19
54528,北辰区,天津,39.2333,117.1333,3.40,20
54529,宁河,天津,39.35,117.8167,3.90,25
54530,汉沽区,天津,39.2333,117.7667,1.30,22
54531,滦县,河北,39.7333,118.7167,43,31
54532,丰润,河北,39.80,118.10,33.30,28
54533,丰南,河北,39.5833,118.10,8.90,28
54534,唐山,河北,39.65,118.10,23.20,29
54535,曹妃甸,河北,39.2833,118.4667,3.20,37
54539,乐亭,河北,39.4333,118.8833,10.50,31
54540,昌黎,河北,39.7333,119.20,17.60,28
54541,抚宁,河北,39.90,119.2333,24.30,27
54563,瓦房店,辽宁,39.6333,122.0167,118.70,38
54568,金州,辽宁,39.0833,121.70,42.70,43
54569,普兰店,辽宁,39.4167,121.95,11.70,37
54575,皮口,辽宁,39.4167,122.3667,43.20,45
54579,长海,辽宁,39.2667,122.5833,35.50,44
54584,庄河,辽宁,39.7167,122.95,34.80,31
54590,东港,辽宁,39.8833,124.1667,4.20,42
54594,大兴,北京,39.7167,116.35,37.60,17
54596,房山,北京,39.6833,116.1333,39.20,14
54597,霞云岭,北京,39.7333,115.7333,407.70,13
54601,徐水,河北,38.9833,115.65,13.10,15
54602,保定,河北,38.7333,115.4833,16.80,13
54603,高阳,河北,38.7167,115.7667,10,14
54604,安国,河北,38.4167,115.3333,29.60,13
54605,安新,河北,38.9333,115.9333,4.40,16
54606,饶阳,河北,38.2333,115.7333,19,16
54607,望都,河北,38.7167,115.1167,45,13
54608,深州,河北,38,115.55,26.10,15
54609,安平,河北,38.25,115.50,25.50,14
54610,任丘,河北,38.7333,116.10,8.10,18
54611,满城,河北,38.9333,115.3167,44.80,14
54612,文安,河北,38.8667,116.45,6.40,17
54613,大城,河北,38.70,116.6167,6.90,19
54614,河间,河北,38.4167,116.05,10.90,17
54615,青县,河北,38.5833,116.85,8,19
54616,沧州,河北,38.35,116.85,8,20
54617,献县,河北,38.1833,116.1167,13.20,17
54618,泊头,河北,38.0833,116.55,13.20,18
54619,静海,天津,38.9167,116.9167,5.50,18
54620,蠡县,河北,38.4833,115.5667,18.50,14
54621,深泽,河北,38.1833,115.1833,38.10,15
54622,津南区,天津,38.9833,117.3667,3.70,18
54623,塘沽,天津,39.05,117.7167,4.80,20
54624,黄骅,河北,38.40,117.3167,4.50,21
54626,肃宁,河北,38.4167,115.8167,13.90,16
54627,盐山,河北,38.0333,117.2333,8.20,21
54628,海兴,河北,38.15,117.4833,6.40,22
54631,广宗,河北,37.0667,115.15,32.40,19
54632,平乡,河北,37.0667,115.0333,34,19
54633,新河,河北,37.5167,115.2333,26.30,19
54636,雄县,河北,39.0167,116.10,11.10,17
54640,鸡泽,河北,36.9167,114.8667,36,22
54644,孟村,河北,38.05,117.1167,10.50,19
54645,大港,天津,38.85,117.4667,2.20,20
54660,旅顺,辽宁,38.8167,121.2333,66.70,40
54662,大连,辽宁,38.90,121.6333,91.50,42
54700,武强,河北,38.0333,115.9333,16.20,15
54701,辛集,河北,37.9333,115.20,35.90,15
54702,衡水,河北,37.7333,115.70,20.70,16
54703,武邑,河北,37.80,115.8833,21.30,16
54704,冀州,河北,37.5167,115.5667,24.80,16
54705,南宫,河北,37.3667,115.3833,27.40,18
54706,清河,河北,37.0833,115.6667,31.50,17
54707,故城,河北,37.35,115.9833,27.40,17
54708,枣强,河北,37.50,115.7333,23.60,19
54709,武城,山东,37.2167,116.0667,25.70,18
54710,阜城,河北,37.8667,116.1667,18.60,17
54711,景县,河北,37.70,116.2833,18.30,17
54712,临邑,山东,37.20,116.8167,18.50,20
54713,东光,河北,37.8833,116.5333,14.40,16
54714,德州,山东,37.45,116.3333,23.60,16
54715,陵县,山东,37.3167,116.5667,18.60,15
54716,宁津,山东,37.6667,116.80,16.30,17
54717,吴桥,河北,37.6333,116.40,17.10,17
54718,平原,山东,37.15,116.4333,21.80,13
54719,南皮,河北,38.0333,116.6833,11.10,17
54722,无棣,山东,37.75,117.6333,6.80,27
54723,阳信,山东,37.65,117.5667,10.10,27
54724,商河,山东,37.3167,117.1333,14.80,21
54725,惠民,山东,37.50,117.5333,11.70,28
54726,乐陵,山东,37.70,117.1833,11.50,19
54727,章丘,山东,36.6833,117.55,121.80,42
54728,庆云,山东,37.7667,117.3833,8.40,23
54729,高青,山东,37.1667,117.8667,11.50,37
54730,沾化,山东,37.70,118.1333,6.30,40
54731,利津,山东,37.4833,118.2167,11.90,42
54732,河口,山东,37.8667,118.5167,5.60,33
54734,滨州,山东,37.35,118,12.20,33
54736,东营,山东,37.4333,118.6667,6,41
54737,博兴,山东,37.15,118.15,9.40,51
54738,广饶,山东,37.05,118.40,15,60
54744,垦利,山东,37.5833,118.55,8.50,43
54749,莱州,山东,37.1833,119.95,48.40,47
54751,长岛,山东,37.9333,120.7333,39.70,46
54752,蓬莱,山东,37.80,120.7667,60.70,46
54753,龙口,山东,37.6333,120.3333,4.80,43
54755,招远,山东,37.3667,120.3833,112.30,49
54759,栖霞,山东,37.3167,120.85,205.50,62
54764,福山,山东,37.4833,121.2333,53.90,45
54765,烟台,山东,37.4833,121.4333,82,53
54766,牟平,山东,37.3833,121.6167,10.50,51
54774,威海,山东,37.4667,122.1333,65.40,49
54776,成山头,山东,37.40,122.70,47.70,62
54777,文登,山东,37.20,122.0667,118,54
54778,荣成,山东,37.1667,122.4833,61.70,53
54800,威县,河北,37,115.25,33.30,19
54801,临西,河北,36.85,115.4833,35.30,18
54802,临清,山东,36.8167,115.7333,34,19
54803,夏津,山东,36.9833,116.0167,27.90,21
54804,大名,河北,36.30,115.1333,44.90,23
54805,冠县,山东,36.45,115.4667,39.30,22
54806,聊城,山东,36.4167,115.9667,33,20
54807,阳谷,山东,36.1333,115.80,41.30,21
54808,莘县,山东,36.2333,115.6333,37.80,22
54809,馆陶,河北,36.55,115.2833,41.30,23
54810,高唐,山东,36.8667,116.2667,27.10,18
54811,禹城,山东,36.9333,116.6167,20.60,16
54812,齐河,山东,36.7833,116.75,22.70,23
54814,茌平,山东,36.5333,116.25,29.70,21
54815,东阿,山东,36.3833,116.2667,31.40,21
54816,长清,山东,36.5167,116.80,98.90,28
54817,台前,河南,35.9833,115.8667,42.10,24
54818,平阴,山东,36.25,116.4167,79.90,22
54819,肥城,山东,36.1833,116.80,113.60,34
54820,邱县,河北,36.8167,115.1667,36.70,21
54821,济阳,山东,37,117.20,20.40,26
54822,邹平,山东,36.8667,117.7333,47.40,44
54823,济南,山东,36.60,117,170.30,32
54824,淄川,山东,36.6333,117.95,95,66
54825,博山,山东,36.5167,117.85,189.70,63
54826,泰山,山东,36.25,117.10,1533.70,77
54827,泰安,山东,36.1667,117.15,128.60,34
54828,莱芜,山东,36.2333,117.6833,229.30,56
54829,周村,山东,36.7667,117.8667,85.70,52
54830,淄博,山东,36.8167,117.9333,34.40,57
54831,青州,山东,36.65,118.50,102.50,60
54832,寿光,山东,36.8833,118.7333,25.80,60
54833,桓台,山东,36.9667,118.0833,15.10,55
54834,临淄,山东,36.8667,118.2833,46.30,68
54835,临朐,山东,36.50,118.55,106.50,57
54836,沂源,山东,36.1833,118.1667,305.10,69
54837,昌乐,山东,36.6833,118.8333,78.80,63
54841,昌邑,山东,36.8667,119.4167,23.50,53
54842,平度,山东,36.7833,120,62.20,48
54843,潍坊,山东,36.75,119.20,22.20,59
54844,安丘,山东,36.4167,119.1833,62.70,67
54846,高密,山东,36.3833,119.7333,51.50,59
54848,诸城,山东,35.9833,119.4167,82.60,63
54849,胶州,山东,36.2167,120.0333,84.40,59
54851,莱西,山东,36.90,120.5667,76.90,56
54852,莱阳,山东,36.9667,120.7333,54.40,54
54853,崂山,山东,36.1667,120.4167,42.60,55
54855,即墨,山东,36.3833,120.4667,26.20,61
54857,青岛,山东,36.0667,120.3333,76,56
54861,乳山,山东,36.9333,121.5333,45.40,51
54863,海阳,山东,36.7833,121.1833,40.90,49
54871,石岛,山东,36.9333,122.4833,9.80,53
54900,濮阳,河南,35.70,115.0167,53.70,25
54901,南乐,河南,36.0833,115.1667,47.50,25
54902,清丰,河南,35.90,115.1167,49.50,27
54903,范县,河南,35.85,115.4833,45.70,24
54904,鄄城,山东,35.5833,115.5167,50.10,30
54905,郓城,山东,35.5833,115.9333,46.20,30
54906,菏泽,山东,35.25,115.4167,49.90,31
54907,鱼台,山东,34.9833,116.65,34.30,50
54908,东明,山东,35.2667,115.10,57.30,28
54909,定陶,山东,35.0833,115.5167,51.50,34
54910,梁山,山东,35.8167,116.05,40.90,23
54911,东平,山东,35.9333,116.40,44,29
54912,汶上,山东,35.7667,116.50,41.80,34
54913,宁阳,山东,35.75,116.8167,62.20,40
54914,巨野,山东,35.4167,116.0833,40.60,37
54915,济宁,山东,35.4333,116.60,33.30,40
54916,兖州,山东,35.5667,116.85,51.70,46
54917,金乡,山东,35.10,116.3167,36.70,42
54918,曲阜,山东,35.60,116.9667,62.30,48
54919,邹城,山东,35.3833,116.9833,88.70,48
54920,泗水,山东,35.65,117.2833,110.40,53
54921,嘉祥,山东,35.4167,116.3333,38.10,35
54922,新泰,山东,35.8833,117.7833,224,63
54923,蒙阴,山东,35.7167,117.9333,202.20,64
54925,平邑,山东,35.5167,117.6333,167.20,64
54927,滕州,山东,35.10,117.20,74.90,64
54929,费县,山东,35.2667,117.9667,121.20,60
54932,沂水,山东,35.7667,118.65,186.70,68
54935,沂南,山东,35.5333,118.4333,119.40,68
54936,莒县,山东,35.5667,118.8333,107.40,68
54938,临沂,山东,35.05,118.40,65.20,65
54939,莒南,山东,35.1667,118.8167,113.80,67
54940,五莲,山东,35.75,119.20,148.20,75
54943,胶南,山东,35.8833,120,10.40,59
54945,日照,山东,35.4333,119.5333,36.90,59
55228,狮泉河,西藏,32.50,80.0833,4278.60,23
55248,改则,西藏,32.15,84.4167,4414.90,7
55279,班戈,西藏,31.3833,90.0167,4700,11
55294,安多,西藏,32.35,91.10,4800,15
55299,那曲,西藏,31.4833,92.0667,4507,10
55437,普兰,西藏,30.2833,81.25,3900,31
55472,申扎,西藏,30.95,88.6333,4672,12
55493,当雄,西藏,30.4833,91.10,4200,18
55569,拉孜,西藏,29.0833,87.60,4000,11
55572,南木林,西藏,29.6833,89.10,4000,16
55578,日喀则,西藏,29.25,88.8833,3836,10
55585,尼木,西藏,29.4333,90.1667,3809.40,6
55589,贡嘎,西藏,29.30,90.9833,3555.30,8
55591,拉萨,西藏,29.6667,91.1333,3648.90,9
55593,墨竹工卡,西藏,29.85,91.7333,3804,8
55597,琼结,西藏,29.0333,91.6833,3740,6
55598,泽当,西藏,29.2667,91.7667,3560,8
55655,聂拉木,西藏,28.1833,85.9667,3810,20
55664,定日,西藏,28.6333,87.0833,4300,29
55680,江孜,西藏,28.9167,89.60,4040,9
55681,浪卡子,西藏,28.9667,90.40,4431.70,4
55690,错那,西藏,27.9833,91.95,4280.30,31
55696,隆子,西藏,28.4167,92.4667,3860,8
55773,帕里,西藏,27.7333,89.0833,4300,32
56004,沱沱河,青海,34.2167,92.4333,4533.10,17
56016,治多,青海,33.85,95.6167,4179.10,19
56018,杂多,青海,32.8833,95.2833,4066.40,31
56021,曲麻莱,青海,34.1167,95.80,4175,40
56029,玉树,青海,33,96.9667,3716.90,13
56033,玛多,青海,34.9167,98.2167,4272.30,31
56034,清水河,青海,33.80,97.1333,4415.40,19
56038,石渠,四川,32.9833,98.10,4200,18
56043,玛沁,青海,34.4833,100.2333,3719,17
56045,甘德,青海,33.9667,99.90,4050,49
56046,达日,青海,33.75,99.65,3967.50,54
56065,河南,青海,34.7333,101.60,3500,32
56067,久治,青海,33.4333,101.4833,3628.50,17
56071,碌曲,甘肃,34.5833,102.50,3105.70,17
56074,玛曲,甘肃,34,102.0833,3471.40,14
56079,若尔盖,四川,33.5833,102.9667,3441.40,20
56080,合作,甘肃,35,102.90,2910,14
56081,临潭,甘肃,34.70,103.35,2810.20,12
56082,卓尼,甘肃,34.5833,103.50,2540.30,26
56084,迭部,甘肃,34.0667,103.2333,2374.20,24
56091,漳县,甘肃,34.85,104.4667,1883.30,35
56092,陇西,甘肃,35,104.65,1728.20,35
56093,岷县,甘肃,34.4333,104.0167,2315,29
56094,舟曲,甘肃,33.7833,104.3667,1400,23
56095,宕昌,甘肃,34.0333,104.3833,1753.20,26
56096,武都,甘肃,33.40,104.9167,1079.10,18
56097,九寨沟,四川,33.2667,104.25,1436.50,20
56106,索县,西藏,31.8833,93.7833,4022.80,31
56109,比如,西藏,31.4833,93.7833,3940,24
56116,丁青,西藏,31.4167,95.60,3873.10,24
56125,囊谦,青海,32.20,96.4667,3643.70,15
56128,类乌齐,西藏,31.2167,96.60,3810,15
56137,昌都,西藏,31.15,97.1667,3315,9
56144,德格,四川,31.80,98.5833,3184,10
56146,甘孜,四川,31.6167,100,3393.50,6
56147,白玉,四川,31.2167,98.8333,3260,5
56151,班玛,青海,32.9333,100.75,3530,11
56152,色达,四川,32.2833,100.3333,3893.90,10
56158,炉霍,四川,31.40,100.6667,3250,6
56164,壤塘,四川,32.2667,100.9833,3284.80,8
56167,道孚,四川,30.9833,101.1167,2957.20,6
56168,金川,四川,31.4833,102.0667,2168.90,8
56171,阿坝,四川,32.90,101.70,3275.10,9
56172,马尔康,四川,31.90,102.2333,2664.40,5
56173,红原,四川,32.80,102.55,3491.60,10
56178,小金,四川,31,102.35,2438,7
56180,茂县,四川,31.6833,103.85,1590.10,47
56181,崇州,四川,30.6833,103.70,541.70,30
56182,松潘,四川,32.6667,103.60,2881.30,6
56183,汶川,四川,31.50,103.6167,1369,27
56184,理县,四川,31.4333,103.1667,1896.70,27
56185,黑水,四川,32.0833,102.9833,2400.10,6
56186,绵竹,四川,31.3333,104.20,589,40
56187,温江,四川,30.75,103.8667,547.70,28
56188,都江堰,四川,31,103.6667,698.50,33
56189,彭州,四川,30.9833,103.9333,581.70,32
56190,安县,四川,31.55,104.55,519.40,32
56192,文县,甘肃,32.95,104.6667,1014.30,15
56193,平武,四川,32.4167,104.5167,893.20,25
56194,北川,四川,31.6333,104.45,597.20,45
56195,江油,四川,31.80,104.7333,543.10,48
56196,绵阳,四川,31.45,104.7333,522.70,27
56197,什邡,四川,31.15,104.1667,535.70,33
56198,德阳,四川,31.3167,104.50,525.70,29
56199,中江,四川,31.0333,104.6833,423.50,24
56202,嘉黎,西藏,30.6667,93.2833,4488.80,17
56223,洛隆,西藏,30.75,95.8333,3640,15
56227,波密,西藏,29.8667,95.7667,2736,22
56228,八宿,西藏,30.05,96.9167,3260,5
56247,巴塘,四川,30,99.10,2589.20,3
56251,新龙,四川,30.9333,100.3167,3000,5
56257,理塘,四川,30,100.2667,3948.90,6
56263,丹巴,四川,30.8833,101.8833,1949.70,14
56267,雅江,四川,30.0333,101.0167,2600.90,8
56272,郫县,四川,30.8167,103.8833,558.50,30
56273,宝兴,四川,30.3833,102.8167,1009.70,36
56276,新津,四川,30.45,103.8167,467,29
56278,天全,四川,30.0667,102.7667,755.80,37
56279,芦山,四川,30.15,102.9333,682.70,38
56280,名山,四川,30.0833,103.1167,691.30,31
56281,蒲江,四川,30.1833,103.50,510.80,28
56284,邛崃,四川,30.45,103.4333,518.50,28
56285,大邑,四川,30.60,103.5167,523.90,28
56286,龙泉驿,四川,30.55,104.25,515.10,25
56287,雅安,四川,29.9833,103,627.60,33
56288,双流,四川,30.5833,103.9167,494.60,27
56289,彭山,四川,30.20,103.8667,437,23
56290,新都,四川,30.7833,104.1833,514.50,27
56291,广汉,四川,30.9333,104.2833,469,30
56295,简阳,四川,30.3833,104.55,448.50,25
56296,金堂,四川,30.85,104.4333,448.40,23
56297,仁寿,四川,30.0167,104.15,436.50,28
56298,资阳,四川,30.1333,104.60,417,33
56307,加查,西藏,29.15,92.5833,3260,5
56312,林芝,西藏,29.6667,94.3333,2991.80,22
56317,米林,西藏,29.2167,94.2167,2950,23
56331,左贡,西藏,29.6667,97.8333,3780,8
56342,芒康,西藏,29.6833,98.60,3870,6
56357,稻城,四川,29.05,100.30,3727.70,8
56371,泸定,四川,29.9167,102.2333,1321.20,33
56373,荥经,四川,29.7833,102.85,763.20,38
56374,康定,四川,30.05,101.9667,2615.70,40
56376,汉源,四川,29.35,102.6333,1098,31
56378,石棉,四川,29.2333,102.35,890.70,33
56380,洪雅,四川,29.8833,103.35,571.20,24
56381,丹棱,四川,30.0667,103.50,630.20,25
56382,夹江,四川,29.7333,103.60,407.10,24
56383,青神,四川,29.8333,103.8667,455.20,18
56384,峨眉,四川,29.60,103.4833,446.70,23
56385,峨眉山,四川,29.5167,103.3333,3047.40,31
56386,乐山,四川,29.5667,103.75,424.20,18
56387,峨边,四川,29.2333,103.2667,642.20,25
56389,犍为,四川,29.20,103.95,387.60,23
56390,井研,四川,29.6667,104.0667,404.40,27
56391,眉山,四川,30.0833,103.8167,415.40,23
56393,资中,四川,29.7667,104.85,369.40,30
56394,荣县,四川,29.45,104.4333,384.10,30
56395,威远,四川,29.5167,104.6667,351.10,32
56396,自贡,四川,29.35,104.7667,352.60,31
56399,富顺,四川,29.1833,104.9833,306.20,35
56434,察隅,西藏,28.65,97.4667,2327.60,17
56441,得荣,四川,28.7167,99.2833,2422.90,10
56443,乡城,四川,28.9333,99.80,2842,9
56444,德钦,云南,28.4833,98.9167,3319,15
56459,木里,四川,27.9333,101.2667,2426.50,18
56462,九龙,四川,29,101.50,2925,5
56473,甘洛,四川,28.95,102.7667,1060.30,32
56474,冕宁,四川,28.55,102.1667,1774,29
56475,越西,四川,28.65,102.5167,1659.50,38
56478,喜德,四川,28.30,102.4333,1818.10,26
56479,昭觉,四川,28,102.85,2132.40,46
56480,马边,四川,28.8167,103.5333,564.10,26
56483,绥江,云南,28.5833,103.95,496.60,29
56485,雷波,四川,28.2667,103.5833,1255.80,45
56487,美姑,四川,28.3333,103.1333,1943.90,42
56489,永善,云南,28.2333,103.6333,877.20,38
56490,沐川,四川,28.95,103.90,424,24
56491,宜宾县,四川,28.70,104.5667,287,34
56492,宜宾,四川,28.80,104.60,340.80,33
56493,南溪,四川,28.85,104.9667,292.80,42
56494,屏山,四川,28.65,104.15,462,28
56496,兴文,四川,28.3167,105.2333,358.20,55
56497,盐津,云南,28.10,104.2333,448.80,48
56498,筠连,四川,28.15,104.50,549,46
56499,珙县,四川,28.3833,104.7833,368.20,48
56533,贡山,云南,27.75,98.6667,1583.30,34
56543,香格里拉,云南,27.8333,99.70,3276.70,19
56548,维西,云南,27.1667,99.2833,2326.10,26
56565,盐源,四川,27.4333,101.5167,2545,21
56567,宁蒗,云南,27.30,100.85,2240.50,24
56569,德昌,四川,27.4167,102.1833,1380,26
56571,西昌,四川,27.90,102.2667,1590.90,16
56575,普格,四川,27.3667,102.55,1428,28
56578,宁南,四川,27.0667,102.75,993.60,33
56580,布拖,四川,27.7167,102.80,2460,49
56582,大关,云南,27.75,103.90,1176.20,50
56584,金阳,四川,27.70,103.25,1093,41
56585,鲁甸,云南,27.1833,103.5333,1916,61
56586,昭通,云南,27.35,103.7167,1949.50,56
56592,高县,四川,28.4333,104.5167,359.70,39
56593,长宁,四川,28.5833,104.9167,279.10,38
56594,彝良,云南,27.6333,104.05,880.40,45
56595,镇雄,云南,27.4167,104.8667,1645.20,48
56596,威信,云南,27.85,105.05,1177.20,60
56598,赫章,贵州,27.1333,104.7333,1535.10,54
56641,福贡,云南,26.90,98.8667,1189.70,37
56643,六库,云南,25.8667,98.85,949.90,28
56645,兰坪,云南,26.4167,99.4167,2344.90,22
56646,剑川,云南,26.5333,99.9167,2191.40,22
56649,洱源,云南,26.10,99.9667,2059.90,24
56651,丽江,云南,26.85,100.2167,2380.90,21
56652,永胜,云南,26.6833,100.75,2130.50,25
56654,鹤庆,云南,26.5833,100.1833,2195.40,18
56664,华坪,云南,26.6333,101.2667,1230.80,20
56665,盐边,四川,26.6833,101.85,1140.30,18
56666,攀枝花,四川,26.5833,101.7167,1224.80,19
56669,永仁,云南,26.05,101.6667,1531.30,24
56670,米易,四川,26.9167,102.1167,1136.90,19
56671,会理,四川,26.65,102.25,1787.30,24
56673,巧家,云南,26.9167,102.9167,893.90,31
56674,仁和,四川,26.50,101.7333,1108,19
56675,会东,四川,26.65,102.5833,1694.50,26
56684,会泽,云南,26.4167,103.2833,2110.50,42
56688,东川,云南,26.10,103.1667,1254.10,20
56691,威宁,贵州,26.8667,104.2833,2237.50,72
56693,水城,贵州,26.5833,104.8667,1815.90,67
56697,宣威,云南,26.2167,104.0833,1984.20,47
56739,腾冲,云南,25.0167,98.50,1654.60,38
56742,云龙,云南,25.90,99.3667,1658.50,19
56745,漾濞,云南,25.6833,99.95,1626.10,25
56746,永平,云南,25.4667,99.5167,1616.70,27
56748,保山,云南,25.1167,99.1833,1652.20,33
56751,大理,云南,25.70,100.1833,1990.50,31
56752,宾川,云南,25.8333,100.5667,1438.70,16
56755,弥渡,云南,25.35,100.4833,1668.50,23
56756,祥云,云南,25.4833,100.5833,1992.90,24
56757,巍山,云南,25.2667,100.2833,1742.10,26
56761,大姚,云南,25.7167,101.3167,1878.10,23
56763,元谋,云南,25.7333,101.8667,1120.60,22
56764,姚安,云南,25.5333,101.2333,1873.50,22
56766,牟定,云南,25.30,101.5167,1822,25
56767,南华,云南,25.1833,101.2833,1857.40,26
56768,楚雄,云南,25.0333,101.55,1824.10,28
56772,富民,云南,25.2333,102.50,1692.70,25
56774,武定,云南,25.5333,102.4167,1710.70,24
56775,禄劝,云南,25.55,102.45,1750.90,28
56777,禄丰,云南,25.15,102.0667,1566.10,27
56778,昆明,云南,25,102.65,1888.10,30
56781,寻甸,云南,25.55,103.2667,1873.20,27
56782,马龙,云南,25.4167,103.55,2067.10,26
56783,曲靖,云南,25.50,103.80,1906.20,28
56785,嵩明,云南,25.35,103.0833,1915.70,25
56786,沾益,云南,25.5833,103.8333,1898.70,28
56788,陆良,云南,24.9833,103.6167,1857.60,27
56790,富源,云南,25.6833,104.25,1925.80,31
56792,普安,贵州,25.7833,104.9667,1649.40,79
56793,盘县,贵州,25.7167,104.4667,1800,39
56835,陇川,云南,24.0667,97.8167,959.10,37
56836,盈江,云南,24.70,97.95,826.70,33
56838,瑞丽,云南,24,97.85,762.90,38
56839,镇康,云南,23.7667,98.8167,995.30,29
56840,粱河,云南,24.8167,98.30,1012.90,34
56841,龙陵,云南,24.60,98.6833,1528,43
56842,施甸,云南,24.7333,99.1833,1471.20,30
56843,昌宁,云南,24.8333,99.6167,1650.60,31
56844,芒市,云南,24.4333,98.5833,913.80,32
56846,凤庆,云南,24.5833,99.9333,1569,34
56849,永德,云南,24.0333,99.2333,1606.20,34
56851,南涧,云南,25.0333,100.5167,1377.20,24
56854,云县,云南,24.45,100.1333,1108.60,27
56856,景东,云南,24.4667,100.8667,1162.30,27
56862,双柏,云南,24.6833,101.60,1968.10,35
56863,安宁,云南,24.9333,102.4833,1848,27
56867,镇沅,云南,23.9833,101.1167,1105.40,32
56869,新平,云南,24.0667,101.9667,1497.50,34
56870,易门,云南,24.6667,102.1667,1575.90,30
56871,晋宁,云南,24.65,102.60,1893.10,33
56872,太华山,云南,24.95,102.6167,2358.30,37
56873,澄江,云南,24.6833,102.9167,1796.30,31
56875,玉溪,云南,24.3333,102.55,1716.90,27
56876,江川,云南,24.2833,102.7667,1731.10,29
56878,通海,云南,24.1333,102.75,1801.80,35
56879,华宁,云南,24.1833,102.9167,1702.60,32
56880,宜良,云南,24.9167,103.1667,1532.50,25
56881,石林,云南,24.75,103.2667,1695.80,29
56882,呈贡,云南,24.8833,102.80,1906.60,35
56883,师宗,云南,24.8167,103.9833,1900.90,34
56885,弥勒,云南,24.40,103.45,1415.50,24
56886,泸西,云南,24.5333,103.7667,1704.30,35
56889,丘北,云南,24.05,104.1667,1518.70,26
56891,罗平,云南,24.9833,104.3167,1482.70,44
56898,峨山,云南,24.1833,102.40,1600,31
56944,沧源,云南,23.15,99.2667,1278.30,44
56946,耿马,云南,23.55,99.40,1104.90,35
56948,西盟,云南,22.6333,99.60,1155,41
56949,孟连,云南,22.3167,99.60,945,42
56950,双江,云南,23.4667,99.80,1044.10,28
56951,临沧,云南,23.8833,100.0833,1502.40,31
56952,景谷,云南,23.50,100.70,913.20,36
56954,澜沧,云南,22.5667,99.9333,1054.80,38
56958,勐海,云南,21.9167,100.4167,1176.30,40
56959,景洪,云南,22,100.7833,582,34
56961,宁洱,云南,23.0333,101.05,1336.90,36
56962,墨江,云南,23.4167,101.6667,1314.60,35
56964,思茅,云南,22.7833,100.9667,1302.10,34
56966,元江,云南,23.60,101.9833,400.90,29
56969,勐腊,云南,21.4667,101.5833,633.40,37
56970,石屏,云南,23.70,102.4833,1419.30,29
56973,建水,云南,23.6167,102.8333,1309.30,25
56975,红河,云南,23.3667,102.4333,974.50,29
56976,元阳,云南,23.2333,102.8333,232,26
56977,江城,云南,22.5833,101.85,1120.50,46
56978,绿春,云南,23,102.4167,1642.80,35
56982,开远,云南,23.70,103.2833,1117,25
56984,个旧,云南,23.3833,103.15,1720.50,41
56985,蒙自,云南,23.3833,103.3833,1300.70,34
56986,屏边,云南,22.9833,103.6833,1414.10,43
56987,金平,云南,22.7833,103.2333,1260,42
56989,河口,云南,22.50,103.95,137.80,61
56991,砚山,云南,23.6167,104.3333,1561.10,30
56992,西畴,云南,23.45,104.70,1507.50,49
56994,文山,云南,23.3333,104.2833,1293.50,39
56995,马关,云南,23.0333,104.4167,1332.90,47
56996,麻栗坡,云南,23.1333,104.70,1093.40,79
57001,甘谷,甘肃,34.75,105.3333,1271.90,28
57002,秦安,甘肃,34.85,105.65,1216.10,26
57003,陇县,陕西,34.90,106.8333,924.20,18
57004,武山,甘肃,34.7333,104.8833,1495.40,30
57006,天水,甘肃,34.5833,105.75,1141.60,26
57007,礼县,甘肃,34.1833,105.1833,1404.60,27
57008,西和,甘肃,34.0333,105.30,1579,32
57011,清水,甘肃,34.75,106.15,1378.20,28
57012,张家川,甘肃,34.9833,106.20,1664.50,29
57014,麦积,甘肃,34.5667,105.8667,1085.20,25
57016,宝鸡,陕西,34.35,107.1333,612.40,22
57020,宝鸡县,陕西,34.3667,107.40,563,23
57021,千阳,陕西,34.65,107.1333,751.60,19
57022,麟游,陕西,34.6833,107.7833,1026.30,22
57023,彬县,陕西,35.0333,108.10,840.70,19
57024,岐山,陕西,34.45,107.65,669.60,27
57025,凤翔,陕西,34.5167,107.3833,781.10,25
57026,扶风,陕西,34.3667,107.8833,585.90,24
57027,眉县,陕西,34.2667,107.7333,517.60,22
57028,太白,陕西,34.0333,107.3167,1543.60,32
57029,礼泉,陕西,34.50,108.4833,543.20,21
57030,永寿,陕西,34.70,108.15,994.60,20
57031,淳化,陕西,34.8167,108.55,1012.70,23
57032,周至,陕西,34.1333,108.20,436,22
57033,泾阳,陕西,34.55,108.8167,428.10,21
57034,武功,陕西,34.25,108.2167,447.80,23
57035,乾县,陕西,34.55,108.2333,636.80,21
57037,耀县,陕西,34.9333,108.9833,710,17
57038,兴平,陕西,34.2833,108.45,410.90,22
57039,长安,陕西,34.0833,108.8833,445,20
57040,高陵,陕西,34.5167,109.0833,377.60,18
57041,三原,陕西,34.6333,108.9167,424,17
57042,富平,陕西,34.7833,109.1833,470.90,17
57043,大荔,陕西,34.80,109.9667,351.40,14
57044,临潼,陕西,34.40,109.2333,424.50,19
57045,渭南,陕西,34.5167,109.4833,349.80,19
57046,华山,陕西,34.4833,110.0833,2064.90,37
57047,蓝田,陕西,34.1667,109.3167,540.20,18
57048,秦都,陕西,34.40,108.7167,472.80,20
57049,华县,陕西,34.5167,109.7333,341.50,18
57051,三门峡,河南,34.80,111.20,409.90,8
57052,永济,山西,34.8833,110.45,354.10,17
57053,芮城,山西,34.70,110.7167,505.70,14
57054,潼关,陕西,34.55,110.2333,556.30,20
57055,华阴,陕西,34.55,110.0833,351.30,18
57056,灵宝,河南,34.5333,110.8833,390.40,12
57057,洛南,陕西,34.10,110.15,963.40,19
57060,夏县,山西,35.1667,111.2333,402.90,12
57061,平陆,山西,34.8333,111.20,410.70,10
57063,渑池,河南,34.7667,111.7667,523.60,17
57065,宜阳,河南,34.55,112.1333,317.50,17
57066,洛宁,河南,34.3833,111.6667,328.30,14
57067,卢氏,河南,34.05,111.0333,568.80,21
57070,新安,河南,34.7333,112.1167,364,40
57071,孟津,河南,34.8167,112.4333,333.30,38
57072,孟州,河南,34.9167,112.75,127.50,32
57074,伊川,河南,34.4167,112.40,252.20,25
57075,汝州,河南,34.1667,112.8667,203.10,32
57076,偃师,河南,34.7333,112.7833,189.50,29
57077,栾川,河南,33.7833,111.65,742.40,19
57078,汝阳,河南,34.15,112.4667,336.50,21
57079,温县,河南,34.95,113.0333,106.40,36
57080,巩义,河南,34.7333,112.9667,165.20,27
57081,荥阳,河南,34.80,113.4333,140.90,30
57082,登封,河南,34.4667,113.0167,427.10,25
57083,郑州,河南,34.7167,113.65,110.40,28
57084,嵩山,河南,34.50,113.05,1178.40,46
57085,新密,河南,34.5333,113.3333,259.90,30
57086,新郑,河南,34.3833,113.7167,116.60,34
57087,长葛,河南,34.20,113.80,87.70,41
57088,禹州,河南,34.15,113.50,116.10,32
57089,许昌,河南,34.0667,113.9333,67.20,52
57090,中牟,河南,34.7167,113.9667,78.10,37
57091,开封,河南,34.7833,114.30,73.70,30
57093,兰考,河南,34.85,114.8167,73.30,33
57094,尉氏,河南,34.40,114.2167,67.40,40
57095,鄢陵,河南,34.1167,114.15,61.10,46
57096,杞县,河南,34.5333,114.7833,59.70,42
57098,扶沟,河南,34.0833,114.40,58.30,48
57099,太康,河南,34.0667,114.85,52.60,45
57102,成县,甘肃,33.75,105.7167,970,25
57105,康县,甘肃,33.3333,105.60,1221.20,27
57106,略阳,陕西,33.3167,106.15,794.20,23
57110,徽县,甘肃,33.7833,106.0833,930.80,26
57111,两当,甘肃,33.9167,106.30,961.40,25
57113,凤县,陕西,33.90,106.5333,985.90,23
57119,勉县,陕西,33.1667,106.70,548.10,51
57123,杨凌,陕西,34.2833,108.0667,506,23
57124,留坝,陕西,33.6333,106.9333,1032.10,23
57126,洋县,陕西,33.2167,107.55,468.60,61
57127,汉中,陕西,33.0667,107.0333,509.50,64
57128,城固,陕西,33.1667,107.3333,486.40,62
57129,西乡,陕西,32.9833,107.7167,446,59
57131,泾河,陕西,34.4333,108.9667,410,18
57132,户县,陕西,34.1167,108.6167,414.80,23
57134,佛坪,陕西,33.5167,107.9833,827.20,32
57137,宁陕,陕西,33.3167,108.3167,802.40,60
57140,柞水,陕西,33.6667,109.1167,818.20,25
57143,商县,陕西,33.8667,109.9667,742.20,20
57144,镇安,陕西,33.4333,109.15,693.70,35
57153,丹凤,陕西,33.6833,110.3333,581.70,18
57154,商南,陕西,33.5333,110.90,523,22
57155,山阳,陕西,33.55,109.8667,660.20,23
57156,西峡,河南,33.30,111.50,250.30,29
57162,嵩县,河南,34.15,112.0833,325.80,16
57169,内乡,河南,33.05,111.8667,159.10,36
57173,鲁山,河南,33.75,112.8833,145.70,42
57175,镇平,河南,33.05,112.2333,191.40,40
57176,南召,河南,33.4833,112.4167,231.10,28
57177,舞钢,河南,33.3333,113.5333,89.80,54
57178,南阳,河南,33.0333,112.5833,129.20,41
57179,方城,河南,33.2833,113,160.40,47
57180,郏县,河南,33.9833,113.20,117.50,34
57181,宝丰,河南,33.8833,113.05,136.40,33
57182,襄城,河南,33.85,113.5167,80.40,51
57183,临颍,河南,33.80,113.9167,60,48
57184,叶县,河南,33.6333,113.3667,83.40,38
57185,舞阳,河南,33.45,113.5833,91.10,60
57186,漯河,河南,33.60,114.05,58.70,53
57187,社旗,河南,33.0667,112.9333,118,48
57188,西平,河南,33.3667,114.0333,55.90,51
57189,遂平,河南,33.1333,113.95,64.60,54
57190,黄泛区农试站,河南,33.75,114.40,50.50,52
57191,通许,河南,34.4833,114.4833,63.40,43
57192,淮阳,河南,33.7333,114.85,45.50,46
57193,西华,河南,33.7833,114.5167,52.60,44
57194,上蔡,河南,33.2833,114.2667,59.80,61
57195,川汇区,河南,33.6167,114.6167,46.60,42
57196,项城,河南,33.4667,114.8667,42,45
57197,汝南,河南,32.9667,114.35,50.10,53
57198,商水,河南,33.55,114.6167,46.30,42
57204,青川,四川,32.5667,105.2167,782,16
57206,广元,四川,32.4333,105.85,513.80,21
57208,剑阁,四川,32.2833,105.5167,544.50,18
57211,宁强,陕西,32.8333,106.25,836.10,35
57213,南郑,陕西,33,106.9333,536.50,61
57216,南江,四川,32.35,106.8333,579.30,28
57217,旺苍,四川,32.2333,106.2833,485.70,21
57231,紫阳,陕西,32.5333,108.5333,503.80,68
57232,石泉,陕西,33.05,108.2667,484.90,66
57233,汉阴,陕西,32.90,108.50,413.10,71
57237,万源,四川,32.0667,108.0333,674,50
57238,镇巴,陕西,32.5333,107.90,693.90,56
57242,旬阳,陕西,32.85,109.3667,285.50,67
57245,安康,陕西,32.7167,109.0333,290.80,68
57247,岚皋,陕西,32.3167,108.90,438.50,59
57248,平利,陕西,32.40,109.3333,431,68
57249,竹溪,湖北,32.3167,109.6833,448.20,55
57251,郧西,湖北,33,110.4167,249.10,37
57253,郧县,湖北,32.85,110.8167,201.90,43
57254,白河,陕西,32.8167,110.1167,322.50,43
57256,十堰,湖北,32.65,110.7833,286.50,30
57257,竹山,湖北,32.2333,110.2333,307,59
57259,房县,湖北,32.0333,110.7667,426.90,44
57260,丹江口,湖北,32.5667,111.5167,133.40,39
57261,淅川,河南,33.1167,111.5167,233,46
57265,老河口,湖北,32.4333,111.7333,132.10,54
57268,谷城,湖北,32.2667,111.6167,120,56
57271,新野,河南,32.55,112.3833,87.90,62
57273,唐河,河南,32.6833,112.85,109.50,68
57274,邓州,河南,32.70,112.1167,107.60,38
57278,襄阳,湖北,32,112.0833,163.40,54
57279,枣阳,湖北,32.15,112.75,125.50,65
57281,泌阳,河南,32.70,113.30,142.20,42
57285,桐柏,河南,32.3833,113.4167,153,52
57290,驻马店,河南,33,114.0167,82.70,55
57292,平舆,河南,32.9667,114.6333,44.40,49
57293,新蔡,河南,32.7333,114.9833,38,54
57294,确山,河南,32.8333,114.0167,83.60,56
57295,正阳,河南,32.6167,114.35,78.50,65
57296,息县,河南,32.35,114.7333,48.90,57
57297,信阳,河南,32.1333,114.05,114.50,55
57298,罗山,河南,32.2167,114.55,55.40,64
57299,光山,河南,32.0167,114.90,49.40,62
57303,苍溪,四川,31.7333,105.9167,459.90,22
57304,梓潼,四川,31.6667,105.1667,516.50,22
57306,阆中,四川,31.5833,105.9667,382.60,21
57307,三台,四川,31.10,105.0833,404.90,21
57308,盐亭,四川,31.2167,105.3833,421.30,20
57309,西充,四川,30.9833,105.8833,378.40,31
57313,巴中,四川,31.8667,106.7667,417.70,35
57314,南部,四川,31.35,106.0667,405.70,22
57315,仪陇,四川,31.5333,106.40,655.70,42
57317,蓬安,四川,31.0333,106.4167,324.90,37
57318,营山,四川,31.0667,106.55,338.50,39
57320,通江,四川,31.9333,107.2167,482.40,38
57324,平昌,四川,31.5833,107.0833,364.20,35
57326,宣汉,四川,31.3667,107.7167,389.40,63
57328,达县,四川,31.20,107.50,344.90,59
57329,开江,四川,31.10,107.85,467.50,80
57333,城口,重庆,31.95,108.6667,798.20,70
57338,开县,重庆,31.1833,108.4167,216.50,90
57339,云阳,重庆,30.95,108.6833,297.20,77
57343,镇坪,陕西,31.90,109.5333,995.80,60
57345,巫溪,重庆,31.40,109.6167,337.80,50
57348,奉节,重庆,31.0167,109.5333,299.80,64
57349,巫山,重庆,31.0667,109.8667,275.70,67
57355,巴东,湖北,31.0333,110.3667,334,79
57358,秭归,湖北,30.8333,110.9667,295.50,99
57359,兴山,湖北,31.35,110.7333,336.80,55
57361,保康,湖北,31.8833,111.2667,327.70,46
57362,神农架,湖北,31.75,110.6667,935.20,46
57363,南漳,湖北,31.80,111.8333,151,67
57368,远安,湖北,31.05,111.6333,141.50,73
57370,宜城,湖北,31.7333,112.2167,67.80,74
57377,荆门,湖北,31,112.2167,191.90,72
57378,钟祥,湖北,31.1667,112.5667,65.80,67
57381,随州,湖北,31.6167,113.3333,116.30,71
57385,广水,湖北,31.6167,113.8167,93.30,71
57386,孝昌,湖北,31.25,114,51.60,74
57387,京山,湖北,31,113.1333,84.60,70
57388,安陆,湖北,31.2667,113.70,53.70,73
57389,云梦,湖北,31.0333,113.75,32.20,72
57390,鸡公山,河南,31.80,114.0667,733.50,95
57395,大悟,湖北,31.5667,114.1167,74.90,61
57396,新县,河南,31.6333,114.85,128.70,76
57398,红安,湖北,31.2833,114.6167,74.30,72
57399,麻城,湖北,31.1333,114.95,74.30,71
57401,射洪,四川,30.8667,105.3667,383.30,21
57402,蓬溪,四川,30.7667,105.70,394.50,28
57405,遂宁,四川,30.50,105.55,355,27
57407,乐至,四川,30.2833,105.0333,462.60,30
57408,安岳,四川,30.1167,105.35,338.40,31
57409,潼南,重庆,30.1833,105.80,297.70,31
57411,高坪,四川,30.7833,106.10,309.70,29
57413,渠县,四川,30.85,106.9667,295.10,55
57414,岳池,四川,30.5167,106.45,403.70,60
57415,广安,四川,30.5167,106.6333,394.50,64
57416,邻水,四川,30.3333,106.9333,391.50,55
57417,武胜,四川,30.35,106.2833,315.90,55
57420,大竹,四川,30.75,107.1833,418,66
57425,垫江,重庆,30.3333,107.3333,433.80,76
57426,梁平,重庆,30.6833,107.80,454.50,76
57431,天城,重庆,30.8333,108.35,257,76
57432,万州,重庆,30.7667,108.40,186.70,84
57437,忠县,重庆,30.30,108.0333,325.60,81
57438,石柱,重庆,29.9833,108.1167,632.30,81
57439,利川,湖北,30.2833,108.9333,1074.10,75
57445,建始,湖北,30.60,109.7167,609.20,74
57447,恩施,湖北,30.2833,109.4667,457.10,93
57453,夷陵区,湖北,30.7667,111.3167,115.20,88
57458,五峰,湖北,30.20,110.6667,619.90,80
57460,当阳,湖北,30.8167,111.7833,91.80,60
57461,宜昌,湖北,30.70,111.30,133.10,89
57462,三峡,湖北,30.8667,111.0833,139.90,87
57464,长阳,湖北,30.4667,111.1833,142.60,89
57465,宜都,湖北,30.3833,111.45,74.10,81
57466,枝江,湖北,30.4333,111.75,50,67
57469,松滋,湖北,30.1833,111.7667,69.50,73
57475,潜江,湖北,30.40,112.90,31.20,73
57476,荆州,湖北,30.35,112.15,31.80,68
57477,公安,湖北,30.0667,112.2167,38.40,73
57481,应城,湖北,30.95,113.5667,30.40,71
57482,孝感,湖北,30.90,113.95,25.50,70
57483,天门,湖北,30.6667,113.1333,31.90,70
57484,沙洋,湖北,30.44,112.33,57.20,68
57485,仙桃,湖北,30.30,113.4833,23.70,77
57486,汉川,湖北,30.65,113.85,25,74
57489,蔡甸,湖北,30.5833,114,38.40,74
57491,黄陂,湖北,30.8667,114.40,31.40,72
57492,新洲,湖北,30.8333,114.80,26.40,74
57493,江夏,湖北,30.35,114.3333,73.50,70
57494,武汉,湖北,30.60,114.05,23.60,75
57495,团风,湖北,30.6667,114.8833,28.10,74
57496,鄂州,湖北,30.3667,114.8667,31.30,76
57498,黄冈,湖北,30.4333,114.90,21.40,78
57499,大冶,湖北,30.0667,114.8833,40.30,78
57502,大足,重庆,29.70,105.70,394.70,47
57503,东兴区,四川,29.6167,105.1167,349.70,32
57505,荣昌,重庆,29.4167,105.5833,338,45
57506,永川,重庆,29.3667,105.90,353,54
57507,隆昌,四川,29.3333,105.30,373.40,39
57508,泸县,四川,29.15,105.3667,301,40
57509,万盛,重庆,28.95,106.9333,325.30,80
57510,铜梁,重庆,29.85,106.0667,326.30,58
57511,北碚,重庆,29.85,106.45,240.80,57
57512,合川,重庆,29.9667,106.2833,230.60,63
57513,渝北,重庆,29.7333,106.6167,464.70,68
57514,璧山,重庆,29.5833,106.2167,331.50,54
57516,沙坪坝,重庆,29.5833,106.4667,259.10,63
57517,江津,重庆,29.2833,106.25,261.40,62
57518,巴南,重庆,29.3333,106.50,506.10,80
57519,南川,重庆,29.1667,107.1167,698.80,80
57520,长寿,重庆,29.8333,107.0667,377.60,86
57522,涪陵,重庆,29.7333,107.2667,372.80,82
57523,丰都,重庆,29.85,107.7333,290.50,85
57525,武隆,重庆,29.3167,107.75,277.90,68
57536,黔江,重庆,29.5333,108.7833,607.30,84
57537,彭水,重庆,29.30,108.1667,322.20,61
57540,咸丰,湖北,29.6833,109.15,776.90,85
57541,宣恩,湖北,30,109.4833,532.50,91
57543,鹤峰,湖北,29.90,110.0333,539.80,80
57544,龙山,湖南,29.4667,109.45,488.70,76
57545,来凤,湖北,29.5333,109.4167,502.80,84
57554,桑植,湖南,29.40,110.1667,322.20,86
57558,张家界,湖南,29.1333,110.4667,183.50,70
57562,石门,湖南,29.5833,111.3667,116.90,75
57564,慈利,湖南,29.4333,111.1333,103,70
57565,澧县,湖南,29.6667,111.7333,38.10,75
57566,临澧,湖南,29.45,111.65,51.50,70
57571,石首,湖北,29.70,112.40,35.70,79
57573,监利,湖北,29.8333,112.90,30,79
57574,南县,湖南,29.3667,112.40,36,74
57575,华容,湖南,29.5167,112.5667,31,72
57577,安乡,湖南,29.40,112.1667,36.90,73
57581,洪湖,湖北,29.8167,113.45,27.40,77
57582,赤壁,湖北,29.7167,113.8833,46.90,76
57583,嘉鱼,湖北,29.9167,113.9667,61.70,78
57584,岳阳,湖南,29.3833,113.0833,53,78
57585,临湘,湖南,29.4833,113.45,60.40,78
57586,崇阳,湖北,29.5333,114.0333,78.50,70
57589,通城,湖北,29.25,113.80,102.60,75
57590,咸宁,湖北,29.85,114.3667,98.80,76
57595,通山,湖北,29.60,114.50,76.10,71
57596,金沙,湖北,29.6333,114.20,751.40,99
57598,修水,江西,29.0333,114.5833,146.80,78
57600,江安,四川,28.7167,105.0667,263,41
57603,合江,四川,28.8167,105.8333,283.40,54
57604,纳溪,四川,28.7833,105.3833,368.80,52
57605,古蔺,四川,28.0333,105.8167,537.70,54
57606,桐梓,贵州,28.1333,106.8333,972,63
57608,叙永,四川,28.1667,105.4333,377.50,54
57609,赤水,贵州,28.5833,105.70,317,56
57612,綦江,重庆,29,106.65,474.70,79
57614,习水,贵州,28.3333,106.2167,1180.20,76
57623,道真,贵州,28.8833,107.60,685.60,63
57625,正安,贵州,28.55,107.45,679.70,63
57633,酉阳,重庆,28.8167,108.7667,826.50,74
57634,务川,贵州,28.5167,107.8833,660.30,59
57635,秀山,重庆,28.45,108.9833,363.70,75
57636,沿河,贵州,28.5667,108.50,334.60,53
57637,德江,贵州,28.25,108.1167,523.10,56
57640,花垣,湖南,28.5833,109.45,341,76
57642,保靖,湖南,28.70,109.6333,325.30,74
57643,永顺,湖南,29,109.8333,268.20,73
57646,古丈,湖南,28.6167,109.95,302.10,72
57647,松桃,贵州,28.15,109.1833,406.10,64
57649,吉首,湖南,28.2333,109.6833,254.60,65
57655,沅陵,湖南,28.4667,110.40,151.60,66
57657,泸溪,湖南,28.2167,110.20,186,66
57658,辰溪,湖南,28.0167,110.20,152.80,65
57661,桃源,湖南,28.9167,111.4833,48.70,72
57662,常德,湖南,29.1167,111.6833,150.60,71
57663,汉寿,湖南,28.9167,111.95,31.90,75
57666,桃江,湖南,28.5167,112.1333,52.10,77
57669,安化,湖南,28.3833,111.2167,128.30,71
57671,沅江,湖南,28.85,112.3667,37,73
57673,湘阴,湖南,28.6833,112.8833,53.20,75
57674,赫山,湖南,28.5667,112.3833,46.30,71
57678,宁乡,湖南,28.25,112.55,74.70,74
57679,马坡岭,湖南,28.1167,112.7833,115,79
57680,汨罗,湖南,28.80,113.0667,46.70,75
57682,平江,湖南,28.7167,113.5667,106.30,72
57687,长沙,湖南,28.2167,112.9167,68,76
57688,浏阳,湖南,28.15,113.6333,101.10,76
57694,铜鼓,江西,28.5333,114.3833,259.80,59
57696,宜丰,江西,28.40,114.7833,91.70,51
57698,万载,江西,28.1167,114.45,98.40,53
57699,上高,江西,28.2333,114.9167,66.60,47
57707,毕节,贵州,27.30,105.2833,1510.60,47
57708,大方,贵州,27.15,105.60,1700,49
57710,仁怀,贵州,27.80,106.40,890.30,70
57712,汇川,贵州,27.7333,106.95,983.50,58
57714,金沙,贵州,27.4667,106.2333,942,53
57717,遵义县,贵州,27.5333,106.8333,974.10,62
57718,息烽,贵州,27.10,106.7333,1038.10,62
57719,开阳,贵州,27.0667,106.9667,1275.60,68
57720,绥阳,贵州,27.8833,107.1667,889.30,61
57722,湄潭,贵州,27.7667,107.4667,792.20,63
57723,凤冈,贵州,27.9833,107.7167,710.20,57
57728,瓮安,贵州,27.0667,107.4667,1096.70,68
57729,余庆,贵州,27.2333,107.8833,622.10,57
57731,思南,贵州,27.95,108.25,416.80,55
57732,印江,贵州,28.0167,108.40,456.50,59
57734,石阡,贵州,27.5667,108.2333,467.50,51
57735,岑巩,贵州,27.1833,108.8167,404.30,69
57736,江口,贵州,27.70,108.85,369.20,56
57737,施秉,贵州,27.0333,108.1167,547.30,56
57738,镇远,贵州,27.05,108.4167,516.30,65
57739,玉屏,贵州,27.2333,108.9167,394.80,67
57740,凤凰,湖南,27.95,109.60,349.60,68
57741,铜仁,贵州,27.7167,109.1833,282.70,62
57742,万山,贵州,27.5167,109.20,884.30,84
57743,麻阳,湖南,27.8833,109.80,176.60,64
57744,新晃,湖南,27.3667,109.1667,355.50,68
57745,芷江,湖南,27.45,109.6833,272.20,71
57749,怀化,湖南,27.5667,110,257.80,69
57752,溆浦,湖南,27.9167,110.60,204,72
57754,洪江,湖南,27.35,110.15,170.90,66
57758,洞口,湖南,27.0667,110.5833,323.50,69
57760,冷水江,湖南,27.70,111.4333,249.20,70
57761,新化,湖南,27.75,111.30,211.90,65
57762,涟源,湖南,27.6833,111.70,165,63
57763,娄底,湖南,27.6833,112,205.80,54
57766,邵阳市,湖南,27.1833,111.45,311,72
57767,隆回,湖南,27.1333,111,308.40,69
57768,新邵,湖南,27.3167,111.45,242.50,67
57769,邵东,湖南,27.2333,111.7333,252.60,66
57771,韶山,湖南,27.9333,112.5333,88.30,71
57772,湘乡,湖南,27.75,112.50,86.90,66
57773,湘潭,湖南,27.8667,112.8167,63.80,79
57774,双峰,湖南,27.45,112.1667,100,63
57776,南岳,湖南,27.30,112.70,1265.90,59
57777,衡山,湖南,27.2333,112.8667,63.30,81
57778,衡东,湖南,27.10,112.95,70.30,71
57779,攸县,湖南,27,113.35,102.50,69
57780,株洲,湖南,27.8667,113.1667,74.60,76
57781,醴陵,湖南,27.65,113.50,74.40,71
57783,上栗,江西,27.8833,113.8167,119.50,65
57786,萍乡,江西,27.6333,113.85,117.50,63
57789,莲花,江西,27.1333,113.95,194.50,43
57792,分宜,江西,27.8167,114.6833,93.70,44
57793,宜春,江西,27.80,114.3833,131.30,52
57794,芦溪,江西,27.6333,114.0167,177.20,57
57796,新余,江西,27.80,114.9333,82,45
57798,安福,江西,27.40,114.60,85.90,49
57799,吉安县,江西,27.05,114.9167,71.20,62
57800,纳雍,贵州,26.7667,105.3667,1457.10,53
57803,黔西,贵州,27.0333,106.0167,1231.40,50
57805,织金,贵州,26.6833,105.7667,1319.30,51
57806,安顺,贵州,26.25,105.90,1431.10,58
57807,六枝,贵州,26.20,105.4667,1361.90,67
57808,普定,贵州,26.3167,105.75,1274.50,56
57809,镇宁,贵州,26.0667,105.75,1251,58
57811,修文,贵州,26.8333,106.60,1296.70,52
57813,清镇,贵州,26.5667,106.4667,1261.90,54
57814,平坝,贵州,26.4167,106.2667,1298.20,56
57816,贵阳,贵州,26.5833,106.7333,1223.80,52
57818,长顺,贵州,26.0333,106.45,1140,52
57821,福泉,贵州,26.70,107.50,925,51
57822,黄平,贵州,26.90,107.90,835,58
57824,贵定,贵州,26.5833,107.2333,1001,52
57825,凯里,贵州,26.60,107.9833,720.30,66
57827,都匀,贵州,26.3167,107.5333,969.10,53
57828,麻江,贵州,26.50,107.5833,983.80,54
57829,丹寨,贵州,26.20,107.80,963.20,67
57832,三穗,贵州,26.9667,108.6667,626.90,71
57834,台江,贵州,26.6833,108.30,641.30,67
57835,剑河,贵州,26.7167,108.4333,527.20,64
57837,雷山,贵州,26.40,108.0667,839,71
57839,黎平,贵州,26.2333,109.15,568.80,74
57840,天柱,贵州,26.90,109.20,401.40,68
57841,靖州,湖南,26.5667,109.6667,320.30,68
57842,会同,湖南,26.8833,109.7167,281.40,65
57844,锦屏,贵州,26.6833,109.1833,343,69
57845,通道,湖南,26.1667,109.7833,397.50,66
57846,绥宁,湖南,26.5833,110.15,310.30,69
57851,新宁,湖南,26.4667,110.8333,346.10,68
57853,武冈,湖南,26.7333,110.6333,341,69
57857,城步,湖南,26.3667,110.3167,477.70,64
57859,资源,广西,26.0333,110.6333,408.40,47
57860,邵阳县,湖南,27,111.2833,283.30,72
57865,冷水滩,湖南,26.4667,111.5833,166.10,58
57866,永州,湖南,26.2333,111.6167,172.60,57
57867,东安,湖南,26.40,111.2833,169,51
57868,祁阳,湖南,26.60,111.8667,113.20,61
57870,祁东,湖南,26.80,112.10,151.60,67
57871,衡阳县,湖南,26.9833,112.3667,90.80,71
57872,衡阳,湖南,26.90,112.60,104.90,68
57874,常宁,湖南,26.4167,112.40,116.60,58
57875,衡南,湖南,26.75,112.6833,137,63
57876,耒阳,湖南,26.4333,112.8333,135,60
57881,安仁,湖南,26.7167,113.25,101.80,57
57882,茶陵,湖南,26.7833,113.55,136.20,59
57883,夏坪,江西,26.75,114.2833,253,46
57886,炎陵,湖南,26.4833,113.80,268.80,51
57887,永兴,湖南,26.1167,113.1167,167.60,52
57889,桂东,湖南,26.0833,113.95,835.90,62
57891,永新,江西,26.9333,114.25,153,51
57894,井冈山,江西,26.5833,114.1667,843,69
57895,万安,江西,26.4667,114.7833,101.60,70
57896,遂川,江西,26.3333,114.50,126.10,67
57899,泰和,江西,26.80,114.9167,71.40,66
57900,晴隆,贵州,25.8333,105.2167,1552.70,78
57902,兴仁,贵州,25.4333,105.1833,1378.50,74
57903,关岭,贵州,25.9333,105.60,1142,60
57905,贞丰,贵州,25.40,105.6333,1063.30,70
57906,望谟,贵州,25.1833,106.0833,566.80,58
57907,兴义,贵州,25.0833,104.90,1299.60,67
57908,安龙,贵州,25.1167,105.4833,1394.50,73
57909,册亨,贵州,24.9833,105.8167,584.80,63
57910,紫云,贵州,25.7667,106.0833,1197.60,63
57911,白云,贵州,26.6667,106.65,1323,53
57912,惠水,贵州,26.1333,106.6333,990.90,51
57913,龙里,贵州,26.45,106.9833,1093.70,50
57914,花溪,贵州,26.4167,106.6667,1149,49
57915,乌当,贵州,26.6333,106.7667,1104,49
57916,罗甸,贵州,25.4333,106.7667,440.30,59
57921,平塘,贵州,25.8333,107.3167,708.70,60
57922,独山,贵州,25.8333,107.55,1013.30,66
57923,三都,贵州,25.9833,107.8667,419,60
57926,荔波,贵州,25.4167,107.8833,428.70,65
57927,天峨,广西,24.9667,107.1833,287.30,63
57932,榕江,贵州,25.9667,108.5333,285.70,66
57936,从江,贵州,25.75,108.9167,258.10,67
57941,三江,广西,25.7833,109.60,197.30,65
57942,龙胜,广西,25.80,110,268,65
57947,融安,广西,25.2167,109.40,121.30,66
57948,融水,广西,25.0833,109.25,122.70,70
57949,永福,广西,24.9833,110,156.80,53
57954,临桂,广西,25.2333,110.1833,157.60,56
57955,兴安,广西,25.6167,110.6667,224,49
57956,灵川,广西,25.4167,110.3167,167.90,51
57957,桂林,广西,25.3167,110.30,164.40,50
57958,雁山,广西,25.0833,110.3167,151.30,45
57960,全州,广西,25.9333,111.0667,195.60,49
57962,双牌,湖南,25.9667,111.65,167.80,49
57964,灌阳,广西,25.50,111.15,263.10,37
57965,道县,湖南,25.5333,111.60,192.20,44
57966,宁远,湖南,25.60,111.9667,244.20,40
57969,江永,湖南,25.2667,111.3333,227.20,32
57971,新田,湖南,25.9167,112.20,224.20,40
57972,郴州,湖南,25.80,113.0333,184.90,51
57973,桂阳,湖南,25.75,112.7167,329.10,44
57974,嘉禾,湖南,25.5833,112.3667,214.50,42
57975,蓝山,湖南,25.3833,112.20,277,43
57976,宜章,湖南,25.4167,112.95,222.80,49
57978,临武,湖南,25.2833,112.55,292,50
57981,资兴,湖南,25.9833,113.2167,139.30,70
57985,汝城,湖南,25.5667,113.6833,609.80,81
57988,乐昌,广东,25.15,113.35,102.60,77
57989,仁化,广东,25.0667,113.7667,112.70,99
57990,崇义,江西,25.70,114.30,246.90,85
57991,上犹,江西,25.80,114.55,140.20,79
57992,南康,江西,25.6667,114.75,127,86
57993,赣县,江西,25.8667,115,137.50,88
57994,大余,江西,25.40,114.35,215.60,89
57995,信丰,江西,25.40,114.9333,164.20,65
57996,南雄,广东,25.0833,114.25,149.70,94
58001,睢县,河南,34.4333,115.10,56.30,42
58002,曹县,山东,34.85,115.5833,49,41
58003,成武,山东,34.95,115.8833,45.40,39
58004,民权,河南,34.65,115.15,60.60,38
58005,商丘,河南,34.45,115.6667,50.10,40
58006,虞城,河南,34.3833,115.8833,46.30,46
58007,柘城,河南,34.0667,115.30,47.20,38
58008,宁陵,河南,34.4667,115.3333,54.40,41
58011,单县,山东,34.80,116.0667,46.20,39
58012,丰县,江苏,34.6833,116.5833,40.10,52
58013,沛县,江苏,34.75,116.90,36.50,59
58015,砀山,安徽,34.45,116.3333,44.20,55
58016,萧县,安徽,34.1833,116.9667,34.70,68
58017,夏邑,河南,34.25,116.1333,41,48
58020,微山,山东,34.80,117.1333,35.10,61
58021,薛城,山东,34.7833,117.2833,80.50,62
58022,峄城,山东,34.75,117.5667,48.30,65
58024,枣庄,山东,34.8667,117.5833,77.70,61
58025,台儿庄,山东,34.5667,117.7333,27.60,67
58026,邳州,江苏,34.40,118.0167,25.50,66
58027,徐州,江苏,34.2833,117.15,41.20,68
58030,苍山,山东,34.85,118.0667,45.90,69
58032,临沭,山东,34.9333,118.65,70.10,66
58034,郯城,山东,34.60,118.3167,36.20,63
58035,新沂,江苏,34.3333,118.35,29.30,67
58036,东海,江苏,34.5167,118.7333,34.70,70
58038,沭阳,江苏,34.0833,118.7833,10.40,60
58040,赣榆,江苏,34.85,119.1333,5.30,67
58041,西连岛,江苏,34.7833,119.4333,26.90,61
58044,连云港,江苏,34.5333,119.2333,4.70,61
58045,响水,江苏,34.20,119.60,4.80,64
58047,灌云,江苏,34.25,119.2333,4.80,63
58048,灌南,江苏,34.1167,119.35,4.20,73
58049,滨海,江苏,34.0167,119.80,4.10,63
58100,郸城,河南,33.65,115.1667,41.40,50
58101,鹿邑,河南,33.8667,115.4833,41.30,47
58102,亳州,安徽,33.8667,115.7667,37.70,46
58104,沈丘,河南,33.40,115.0667,41.20,53
58107,临泉,安徽,33.0167,115.2833,35.80,58
58108,界首,安徽,33.2333,115.3333,34,59
58109,太和,安徽,33.1833,115.6167,33,60
58111,永城,河南,33.9667,116.45,32.50,54
58112,天柱山,安徽,30.7333,116.45,968.20,68
58113,濉溪,安徽,33.9333,116.75,31.60,63
58114,涡阳,安徽,33.4833,116.1833,30.40,59
58116,淮北,安徽,33.9833,116.8333,31.50,70
58117,利辛,安徽,33.1333,116.20,27.90,58
58118,蒙城,安徽,33.2667,116.5167,26,66
58122,宿州,安徽,33.6333,116.9833,25.90,70
58125,灵璧,安徽,33.55,117.55,23.90,79
58126,泗县,安徽,33.4667,117.8667,19.50,74
58127,怀远,安徽,32.9833,117.20,21.20,75
58128,固镇,安徽,33.3333,117.35,21,78
58129,五河,安徽,33.15,117.8333,14.90,75
58130,睢宁,江苏,33.9333,117.95,23.80,64
58131,宿豫,江苏,33.9833,118.2667,27.80,66
58132,泗阳,江苏,33.7167,118.6833,14.50,67
58135,泗洪,江苏,33.4833,118.2167,16.90,66
58138,盱眙,江苏,32.9833,118.5167,40.80,63
58139,洪泽,江苏,33.30,118.9167,10.60,68
58140,涟水,江苏,33.7667,119.30,9.10,65
58141,淮安,江苏,33.6333,118.9333,12.50,68
58143,阜宁,江苏,33.80,119.85,4.80,66
58145,楚州,江苏,33.50,119.15,7.40,67
58146,建湖,江苏,33.4667,119.7667,3,68
58147,金湖,江苏,32.9833,118.9667,24.20,79
58148,宝应,江苏,33.2333,119.30,4.30,69
58150,射阳,江苏,33.7667,120.25,2,66
58154,盐城,江苏,33.4333,120.20,2.50,68
58158,大丰,江苏,33.20,120.4833,3.10,72
58202,阜南,安徽,32.6333,115.5833,31.70,63
58203,阜阳,安徽,32.8667,115.7333,32.70,68
58205,淮滨,河南,32.4667,115.4333,34.90,65
58207,潢川,河南,32.1667,115.05,42.80,66
58208,固始,河南,32.1667,115.6167,42.90,55
58210,颍上,安徽,32.65,116.2333,25.20,67
58212,凤台,安徽,32.7167,116.7333,22,81
58214,霍邱,安徽,32.3333,116.2833,32.90,68
58215,寿县,安徽,32.4333,116.7833,25.70,82
58220,长丰,安徽,32.4667,117.15,28.10,78
58221,蚌埠,安徽,32.85,117.30,26.80,84
58222,凤阳,安徽,32.85,117.55,24.60,80
58223,明光,安徽,32.80,117.9833,31.40,68
58224,淮南,安徽,32.65,117.0167,32.60,85
58225,定远,安徽,32.5333,117.6667,69.60,74
58230,全椒,安徽,32.1167,118.2833,26.50,73
58234,来安,安徽,32.4667,118.4167,40.40,74
58235,六合,江苏,32.3667,118.85,10.40,77
58236,滁州,安徽,32.35,118.25,33.50,80
58237,浦口,江苏,32.0667,118.5833,46.60,75
58238,南京,江苏,31.9333,118.90,35.20,71
58240,天长,安徽,32.6833,119.0167,21.30,69
58241,高邮,江苏,32.80,119.45,5.40,70
58242,仪征,江苏,32.30,119.1667,22.50,77
58243,兴化,江苏,32.95,119.8167,3,70
58244,江都,江苏,32.45,119.5833,5.20,70
58245,扬州,江苏,32.4167,119.4167,9.90,75
58246,泰州,江苏,32.55,120,2.60,72
58247,扬中,江苏,32.2667,119.80,5.40,76
58249,泰兴,江苏,32.1667,120,4.40,71
58250,姜堰,江苏,32.5167,120.15,6.20,71
58251,东台,江苏,32.85,120.2833,3.30,75
58252,丹徒,江苏,32.1833,119.4667,27.30,67
58254,海安,江苏,32.5167,120.45,5.40,73
58255,如皋,江苏,32.3667,120.5667,6.40,73
58257,靖江,江苏,31.9833,120.25,4.30,72
58259,南通,江苏,32.0833,120.9833,4.80,78
58264,如东,江苏,32.3333,121.1833,3.40,69
58265,吕泗,江苏,32.0667,121.60,3.60,71
58268,通州,江苏,32.10,121.0833,4.40,70
58269,启东,江苏,31.7833,121.65,3.30,60
58301,商城,河南,31.8167,115.3833,92.10,65
58306,金寨,安徽,31.6833,115.8833,95.40,80
58311,六安,安徽,31.7333,116.50,74.10,84
58314,霍山,安徽,31.40,116.3167,86.40,83
58316,舒城,安徽,31.4667,116.9167,23.60,86
58317,岳西,安徽,30.8667,116.3667,434.20,65
58319,桐城,安徽,31.0667,116.95,85.40,69
58320,肥西,安徽,31.7333,117.1333,21.80,73
58321,合肥,安徽,31.7833,117.30,27,72
58323,肥东,安徽,31.8833,117.4667,25,71
58326,巢湖,安徽,31.5833,117.8333,30.90,72
58327,庐江,安徽,31.2667,117.2833,45.20,72
58329,无为,安徽,31.3333,117.8667,9.60,72
58330,含山,安徽,31.75,118.0833,26,75
58331,和县,安徽,31.7333,118.3667,22.50,73
58334,芜湖,安徽,31.3833,118.3667,9.50,80
58335,当涂,安徽,31.5667,118.5167,23.20,81
58336,马鞍山,安徽,31.70,118.5667,80,82
58337,繁昌,安徽,31.0833,118.1833,26.80,83
58338,芜湖县,安徽,31.15,118.5833,17.10,79
58339,高淳,江苏,31.3333,118.90,15.20,74
58340,溧水,江苏,31.65,119.0333,25.50,75
58341,丹阳,江苏,31.9833,119.60,6.60,71
58342,金坛,江苏,31.7167,119.55,6.90,69
58343,常州,江苏,31.8833,119.9833,4.40,70
58344,句容,江苏,31.9667,119.20,36,76
58345,溧阳,江苏,31.4333,119.4833,5.90,67
58346,宜兴,江苏,31.3333,119.8167,16.40,61
58349,吴中,江苏,31.2667,120.6333,2.30,56
58351,江阴,江苏,31.90,120.30,4.20,69
58352,常熟,江苏,31.65,120.7667,4.50,61
58353,张家港,江苏,31.8667,120.5667,8.70,71
58354,无锡,江苏,31.6167,120.35,3.20,64
58356,昆山,江苏,31.40,121,3.20,55
58358,东山,江苏,31.0667,120.4333,16.70,57
58359,吴江,江苏,31.1333,120.6167,4.70,51
58360,海门,江苏,31.9167,121.20,3.30,64
58361,闵行,上海,31.10,121.3667,5.50,47
58362,宝山,上海,31.40,121.45,5.50,54
58365,嘉定,上海,31.3667,121.25,4.40,54
58366,崇明,上海,31.6333,121.40,4.50,57
58367,徐家汇,上海,31.20,121.4333,4.60,48
58369,南汇,上海,31.05,121.7833,5,50
58370,浦东,上海,31.2333,121.5333,4.40,45
58377,太仓,江苏,31.4667,121.10,2.40,56
58401,罗田,湖北,30.75,115.40,123.10,71
58402,英山,湖北,30.7333,115.6667,123.80,63
58404,浠水,湖北,30.4667,115.2167,61.80,75
58407,黄石,湖北,30.2333,115.0333,32.20,74
58408,蕲春,湖北,30.2333,115.4333,35.10,71
58409,黄梅,湖北,30.10,115.9333,32,68
58414,太湖,安徽,30.4333,116.3167,105.10,67
58415,潜山,安徽,30.6667,116.55,64.40,69
58416,怀宁,安徽,30.75,116.8167,35.50,71
58417,宿松,安徽,30.1667,116.1333,54.70,66
58418,望江,安徽,30.1333,116.6667,60,73
58419,东至,安徽,30.10,117.0167,17.60,65
58420,枞阳,安徽,30.7167,117.2333,58.30,75
58421,青阳,安徽,30.6333,117.8667,31,73
58423,九华山,安徽,30.4833,117.7833,647.30,77
58424,安庆,安徽,30.6167,116.9667,62,71
58426,黄山区,安徽,30.30,118.1333,193.40,50
58427,池州,安徽,30.65,117.50,15,80
58428,石台,安徽,30.2167,117.50,118.50,61
58429,铜陵,安徽,30.9833,117.85,11,83
58431,南陵,安徽,30.90,118.3167,39,81
58432,泾县,安徽,30.6833,118.40,57.30,70
58433,宣城,安徽,30.9333,118.75,31.20,74
58435,旌德,安徽,30.30,118.5333,220.20,55
58436,宁国,安徽,30.6167,118.9833,87.30,65
58437,黄山,安徽,30.1333,118.15,1840.40,93
58438,绩溪,安徽,30.0833,118.5833,191.10,54
58441,广德,安徽,30.8667,119.4167,43.10,62
58442,郎溪,安徽,31.1667,119.1833,16.50,73
58443,长兴,浙江,31.0167,119.90,25,53
58446,安吉,浙江,30.6333,119.70,72.20,59
58448,临安,浙江,30.2167,119.70,117.60,48
58449,富阳,浙江,30.05,119.95,46.50,50
58450,湖州,浙江,30.8667,120.05,7.40,58
58451,嘉善,浙江,30.8333,120.9333,2.60,53
58452,嘉兴,浙江,30.7333,120.7667,4.80,54
58453,绍兴,浙江,30.0667,120.50,7.90,47
58454,德清,浙江,30.5333,119.9667,7.80,47
58455,海宁,浙江,30.5167,120.65,8.80,56
58456,桐乡,浙江,30.6333,120.5167,6,53
58457,杭州,浙江,30.2333,120.1667,41.70,42
58458,海盐,浙江,30.5333,120.90,4.80,50
58459,萧山,浙江,30.1833,120.2833,44.30,49
58460,金山,上海,30.7333,121.35,5.20,51
58461,青浦,上海,31.1333,121.1167,4,49
58462,松江,上海,31.0333,121.2333,4.20,48
58463,奉贤,上海,30.8833,121.50,4.60,51
58464,平湖,浙江,30.6167,121.0833,5.40,54
58467,慈溪,浙江,30.20,121.2667,4.50,47
58468,余姚,浙江,30.05,121.1667,5.40,48
58472,嵊泗,浙江,30.7333,122.45,79.60,67
58477,定海,浙江,30.0333,122.10,35.70,55
58484,岱山,浙江,30.25,122.20,37.10,61
58500,阳新,湖北,29.85,115.20,45.80,73
58501,武穴,湖北,29.9167,115.6333,23.50,74
58502,九江,江西,29.7333,116,36.10,75
58503,瑞昌,江西,29.70,115.6667,41.20,70
58505,九江县,江西,29.6167,115.90,63.10,73
58506,庐山,江西,29.5833,115.9833,1164.50,57
58507,武宁,江西,29.25,115.1167,116,77
58508,德安,江西,29.3333,115.7667,41.30,62
58509,永修,江西,29.05,115.8167,36.60,59
58510,湖口,江西,29.7333,116.2333,40.10,73
58512,彭泽,江西,29.90,116.55,71.30,68
58514,星子,江西,29.45,116.05,37.10,65
58517,都昌,江西,29.2667,116.20,35.50,64
58519,波阳,江西,29,116.6833,40.10,60
58520,祁门,安徽,29.85,117.7167,142,44
58523,黟县,安徽,29.9333,117.9333,227.50,58
58524,浮梁,江西,29.3667,117.2167,87.40,50
58527,景德镇,江西,29.30,117.20,61.50,53
58529,婺源,江西,29.2667,117.85,80.90,50
58530,歙县,安徽,29.8667,118.4333,168.70,52
58531,屯溪,安徽,29.7167,118.2833,142.70,56
58534,休宁,安徽,29.7833,118.1833,170.20,55
58537,开化,浙江,29.1333,118.40,153.60,48
58542,桐庐,浙江,29.8167,119.6833,46.10,48
58543,淳安,浙江,29.6167,119.0167,171.40,50
58544,建德,浙江,29.4833,119.2667,88.90,49
58546,浦江,浙江,29.4667,119.8833,115.80,51
58547,龙游,浙江,29.0333,119.1833,66.20,58
58548,兰溪,浙江,29.2167,119.4667,50.20,50
58549,金华,浙江,29.1167,119.65,62.60,52
58550,诸暨,浙江,29.70,120.25,39.10,49
58553,上虞,浙江,30.05,120.8167,6.40,49
58555,新昌,浙江,29.5167,120.8833,113.90,44
58556,嵊州,浙江,29.60,120.8167,104.30,46
58557,义乌,浙江,29.3333,120.0833,90,44
58558,东阳,浙江,29.2667,120.2167,89.90,47
58559,天台,浙江,29.1667,120.9833,58.30,48
58560,磐安,浙江,29.05,120.4333,304.50,41
58561,镇海,浙江,29.9833,121.60,4,45
58562,鄞州,浙江,29.7833,121.55,5,43
58563,北仑,浙江,29.8833,121.8333,5,41
58565,奉化,浙江,29.6833,121.4333,19.90,42
58566,象山,浙江,29.4667,121.8833,6,51
58567,宁海,浙江,29.3167,121.4333,39.30,50
58568,三门,浙江,29.1167,121.3833,34.50,43
58569,石浦,浙江,29.20,121.95,128.40,66
58570,普陀,浙江,29.95,122.30,85.20,59
58600,靖安,江西,28.8667,115.3667,78.90,55
58601,奉新,江西,28.70,115.3833,53.70,53
58602,安义,江西,28.85,115.55,38.80,56
58605,高安,江西,28.4167,115.3833,46.80,55
58606,南昌,江西,28.60,115.9167,46.90,55
58607,南昌县,江西,28.55,115.95,31.90,58
58608,樟树,江西,28.0667,115.55,30.40,55
58609,丰城,江西,28.2167,115.8167,27,58
58612,余干,江西,28.70,116.6833,21.10,61
58614,进贤,江西,28.3833,116.2667,34.20,59
58615,万年,江西,28.6833,117.0833,56,55
58616,余江,江西,28.20,116.8167,40.90,53
58618,东乡,江西,28.2333,116.60,50.60,56
58619,临川,江西,28,116.3667,49.30,55
58620,乐平,江西,29.0167,117.10,51.20,57
58622,德兴,江西,28.95,117.5833,88.50,48
58623,上饶县,江西,28.4667,117.9167,90.60,50
58624,弋阳,江西,28.40,117.4333,70,53
58625,横峰,江西,28.4167,117.60,79,51
58626,贵溪,江西,28.3167,117.25,60.80,55
58627,鹰潭,江西,28.25,117.0333,55.80,55
58629,铅山,江西,28.3167,117.70,55.10,56
58631,常山,浙江,28.90,118.50,137,52
58632,江山,浙江,28.7167,118.60,126.30,51
58633,衢州,浙江,29,118.90,82.40,50
58634,玉山,江西,28.6833,118.25,116.30,50
58635,广丰,江西,28.4333,118.20,95.30,56
58637,上饶,江西,28.45,117.9833,118.20,49
58642,武义,浙江,28.8833,119.80,105.10,49
58643,永康,浙江,28.90,120.0333,102.90,44
58644,遂昌,浙江,28.60,119.2833,237.80,62
58646,丽水,浙江,28.45,119.9167,59.70,41
58647,龙泉,浙江,28.0833,119.1333,222.10,48
58652,仙居,浙江,28.8667,120.7167,83,41
58654,缙云,浙江,28.6667,120.0833,184.70,42
58656,乐清,浙江,28.0667,120.9667,60.80,66
58657,青田,浙江,28.15,120.2833,57.80,42
58658,永嘉,浙江,28.15,120.6833,34.30,44
58659,温州,浙江,28.0333,120.65,28.30,54
58660,临海,浙江,28.8667,121.20,6.60,52
58664,温岭,浙江,28.3667,121.3667,35.30,54
58665,洪家,浙江,28.6167,121.4167,4.60,50
58666,大陈,浙江,28.45,121.90,86.20,72
58667,玉环,浙江,28.0833,121.2667,95.90,73
58693,新建,江西,28.70,115.8333,40,55
58701,新干,江西,27.7667,115.40,46.50,55
58704,峡江,江西,27.6167,115.35,52.80,60
58705,永丰,江西,27.3333,115.4167,85.70,59
58706,乐安,江西,27.4333,115.8333,181.80,63
58707,吉水,江西,27.2167,115.1333,66.20,63
58710,崇仁,江西,27.7667,116.05,78.60,53
58712,金溪,江西,27.9167,116.7833,130.20,52
58713,资溪,江西,27.7167,117.0667,225.10,62
58714,宜黄,江西,27.55,116.2333,120.40,65
58715,南城,江西,27.5833,116.65,80.80,67
58718,南丰,江西,27.2167,116.5333,111.50,61
58719,黎川,江西,27.30,116.9333,131.10,58
58724,光泽,福建,27.5333,117.3167,268.20,55
58725,邵武,福建,27.3333,117.4667,218,50
58730,武夷山,福建,27.7667,118.0333,222.10,52
58731,浦城,福建,27.9167,118.5333,276.90,49
58734,建阳,福建,27.3333,118.1167,196.90,49
58735,松溪,福建,27.5167,118.80,205.40,46
58736,政和,福建,27.3667,118.8167,221.50,45
58737,建瓯,福建,27.05,118.3167,154.90,46
58742,云和,浙江,28.1167,119.55,163,44
58744,寿宁,福建,27.45,119.4167,815.90,43
58745,庆元,浙江,27.6167,119.0833,400.80,43
58746,泰顺,浙江,27.55,119.70,538.90,42
58747,周宁,福建,27.15,119.35,899.30,47
58748,福安,福建,27.10,119.65,50.50,51
58749,柘荣,福建,27.2333,119.8833,684.10,50
58750,文成,浙江,27.7833,120.0833,105.40,42
58751,平阳,浙江,27.6667,120.5667,254,64
58752,瑞安,浙江,27.7833,120.65,39.70,59
58754,福鼎,福建,27.3333,120.20,36.20,56
58760,洞头,浙江,27.8333,121.15,68.60,67
58804,兴国,江西,26.35,115.35,151,80
58806,宁都,江西,26.4833,116.0167,209.10,62
58813,广昌,江西,26.85,116.3333,143.80,63
58814,石城,江西,26.35,116.35,247.40,60
58818,宁化,福建,26.2333,116.6333,358.90,45
58819,清流,福建,26.1833,116.8167,336.90,55
58820,泰宁,福建,26.90,117.1667,342.90,50
58821,将乐,福建,26.7333,117.4667,173.90,45
58822,建宁,福建,26.8333,116.85,342.30,53
58823,顺昌,福建,26.80,117.80,175.20,44
58824,明溪,福建,26.40,117.15,357.40,51
58826,沙县,福建,26.40,117.80,120.60,56
58828,三明,福建,26.2667,117.6167,208.20,54
58834,南平,福建,26.6333,118.1667,152.20,55
58836,古田,福建,26.5833,118.7333,361.50,55
58837,尤溪,福建,26.1667,118.15,137.20,58
58839,闽清,福建,26.2333,118.85,40.80,57
58843,霞浦,福建,26.8833,120.0167,56.80,68
58844,闽侯,福建,26.15,119.15,57.80,56
58845,罗源,福建,26.50,119.5333,60.50,56
58846,宁德,福建,26.6667,119.5167,32.40,57
58847,福州,福建,26.0833,119.2833,84,53
58848,连江,福建,26.20,119.55,13.40,57
58850,三沙,福建,26.9167,120.2333,92.20,70
58903,瑞金,江西,25.90,116.0333,208,57
58905,于都,江西,25.9667,115.4167,133.20,62
58906,会昌,江西,25.60,115.80,167.40,57
58907,安远,江西,25.15,115.40,305,62
58911,长汀,福建,25.85,116.3667,310,60
58912,连城,福建,25.7167,116.7333,404,57
58917,武平,福建,25.0833,116.10,307,60
58918,上杭,福建,25.05,116.4167,198,59
58921,永安,福建,25.9667,117.35,206,58
58923,大田,福建,25.70,117.8333,400.10,66
58926,漳平,福建,25.30,117.4167,205.30,76
58927,龙岩,福建,25.05,117.0167,376,66
58928,华安,福建,25.0167,117.5333,166.50,77
58929,安溪,福建,25.0667,118.15,68,73
58931,九仙山,福建,25.7167,118.10,1653.50,96
58932,永泰,福建,25.8667,118.9333,85.60,60
58933,屏南,福建,26.9167,118.9833,869.50,53
58934,永春,福建,25.3333,118.2667,170.30,60
58935,德化,福建,25.4833,118.2333,521.40,74
58936,仙游,福建,25.3667,118.70,77.70,57
58938,秀屿,福建,25.2333,118.9833,23.10,75
58940,福州郊区,福建,26.0833,119.3333,25.60,49
58941,长乐,福建,25.9667,119.50,25.90,56
58942,福清,福建,25.7167,119.3833,39.20,58
58944,平潭,福建,25.5167,119.7833,32.40,62
58946,莆田,福建,25.45,119,81.10,52
59001,隆林,广西,24.7833,105.3333,672.20,50
59004,西林,广西,24.50,105.10,725.90,39
59007,广南,云南,24.0667,105.0667,1249.60,36
59012,乐业,广西,24.7833,106.55,972.10,68
59015,凌云,广西,24.35,106.5667,437.90,46
59017,田林,广西,24.2667,106.2667,278.20,44
59021,凤山,广西,24.55,107.0333,509.40,61
59022,南丹,广西,24.9833,107.55,697.90,69
59023,河池,广西,24.70,108.0333,260.20,56
59025,东兰,广西,24.5333,107.3833,248.80,55
59027,巴马,广西,24.1333,107.25,254.90,51
59031,环江,广西,24.8333,108.25,208.50,61
59033,罗城,广西,24.7833,108.90,328.80,62
59034,宜州,广西,24.4833,108.6667,150.70,48
59037,都安,广西,23.9333,108.10,170.80,47
59038,忻城,广西,24.0667,108.65,138.50,48
59041,柳城,广西,24.65,109.25,108.30,59
59044,沙塘,广西,24.4667,109.3833,97.50,52
59045,鹿寨,广西,24.4833,109.75,94.70,59
59046,柳州,广西,24.35,109.40,96.80,49
59047,柳江,广西,24.25,109.3333,100.90,49
59051,阳朔,广西,24.7667,110.50,136.70,39
59052,恭城,广西,24.8333,110.8167,169.60,35
59053,平乐,广西,24.6167,110.6667,105.80,36
59055,荔浦,广西,24.50,110.40,165.70,37
59057,金秀,广西,24.1333,110.1833,830.90,48
59058,蒙山,广西,24.20,110.5167,145.70,45
59059,昭平,广西,24.1833,110.80,105.80,43
59061,富川,广西,24.8167,111.2667,193.10,44
59063,江华,湖南,25.1833,111.45,265.70,37
59064,钟山,广西,24.55,111.3167,136.60,43
59065,贺州,广西,24.4167,111.50,148.70,45
59071,连南,广东,24.7333,112.2833,174.40,57
59072,连州,广东,24.80,112.3667,131.50,55
59074,连山,广东,24.5667,112.15,300.60,45
59075,阳山,广东,24.4833,112.6333,70.50,64
59081,乳源,广东,24.7833,113.2667,98,75
59082,韶关,广东,24.6667,113.60,121.30,92
59087,佛冈,广东,23.8833,113.5167,97.20,94
59088,英德,广东,24.1833,113.4167,74.50,92
59090,始兴,广东,24.95,114.0667,103.20,96
59091,全南,江西,24.75,114.5333,252,65
59092,龙南,江西,24.9167,114.8167,206.30,66
59093,定南,江西,24.7833,115.0333,253,64
59094,翁源,广东,24.35,114.1167,184.10,72
59096,连平,广东,24.3667,114.4833,214.80,69
59097,新丰,广东,24.05,114.20,198.60,72
59099,和平,广东,24.45,114.9333,173.70,62
59102,寻乌,江西,24.95,115.65,303.90,63
59106,平远,广东,24.5833,115.90,152.60,63
59107,龙川,广东,24.1167,115.2833,179.60,66
59109,兴宁,广东,24.15,115.7333,123.60,68
59113,永定,福建,24.7333,116.7167,226.90,62
59114,蕉岭,广东,24.65,116.1667,135.70,63
59116,大埔,广东,24.3333,116.70,81,70
59117,梅县,广东,24.2833,116.0667,116,69
59122,长泰,福建,24.6167,117.75,43,70
59124,南靖,福建,24.5167,117.3833,53.70,71
59125,平和,福建,24.3833,117.30,108.50,77
59126,漳州,福建,24.50,117.65,28.90,72
59127,龙海,福建,24.4333,117.8333,32.10,65
59129,漳浦,福建,24.1333,117.60,53,72
59130,同安,福建,24.7333,118.15,30.80,73
59131,南安,福建,24.9667,118.3667,45.40,63
59133,崇武,福建,24.90,118.9167,21.80,73
59134,厦门,福建,24.4833,118.0667,139.40,71
59137,晋江,福建,24.8167,118.5667,56,64
59205,富宁,云南,23.65,105.6333,685.80,42
59209,那坡,广西,23.4167,105.8333,794.10,48
59211,百色,广西,23.90,106.60,174.70,45
59213,田阳,广西,23.7333,106.9167,110,45
59215,德保,广西,23.3333,106.6333,680,42
59218,靖西,广西,23.1333,106.4167,739.90,47
59224,田东,广西,23.60,107.1167,111.20,53
59227,天等,广西,23.0833,107.15,437.10,51
59228,平果,广西,23.3167,107.5833,108.80,51
59229,隆安,广西,23.1667,107.70,125.70,50
59230,马山,广西,23.7167,108.1667,168,49
59235,上林,广西,23.4333,108.6167,115.50,43
59237,武鸣,广西,23.1667,108.2833,111.70,50
59238,宾阳,广西,23.2167,108.80,122.50,52
59241,象州,广西,23.9667,109.6833,90.50,50
59242,来宾,广西,23.75,109.2333,84.90,46
59246,武宣,广西,23.60,109.6667,70,47
59249,贵港,广西,23.1167,109.6167,51.40,47
59254,桂平,广西,23.40,110.0833,42.50,49
59255,平南,广西,23.55,110.3833,32.50,49
59256,藤县,广西,23.3667,110.9167,54.70,50
59264,封开,广东,23.40,111.50,83.60,43
59265,梧州,广西,23.4833,111.30,114.80,49
59266,苍梧,广西,23.4167,111.2333,42.50,49
59268,郁南,广东,23.25,111.5333,29.20,53
59269,德庆,广东,23.1667,111.7833,47.20,68
59270,怀集,广东,23.9167,112.1833,84.80,71
59271,广宁,广东,23.6333,112.4333,57.30,84
59276,四会,广东,23.35,112.65,40.10,94
59278,高要,广东,23.0333,112.45,41,90
59279,三水,广东,23.1833,112.8667,24.10,100
59280,清远,广东,23.7167,113.0833,79.20,94
59284,花都,广东,23.4167,113.2333,38.90,91
59285,从化,广东,23.5667,113.60,38.30,82
59287,广州,广东,23.2167,113.4833,70.70,86
59288,南海,广东,23.15,113.0167,29.50,87
59289,东莞,广东,22.9667,113.7333,56,74
59290,龙门,广东,23.7333,114.2333,70.30,72
59293,河源,广东,23.80,114.7333,70.80,65
59294,增城,广东,23.3333,113.8333,30.80,69
59297,博罗,广东,23.1833,114.2833,17,72
59298,惠阳,广东,23.0667,114.3667,108.50,70
59303,五华,广东,23.9167,115.75,135.90,71
59304,紫金,广东,23.6333,115.1833,176.80,65
59306,揭西,广东,23.45,115.85,80.80,78
59310,丰顺,广东,23.7667,116.1833,45.30,79
59312,潮州,广东,23.6667,116.70,60.70,74
59313,饶平,广东,23.6833,116.9833,44.70,71
59314,普宁,广东,23.30,116.1333,29,70
59315,揭阳,广东,23.5833,116.40,43.20,70
59316,汕头,广东,23.40,116.6833,2.90,78
59317,惠来,广东,23.0333,116.30,14.40,71
59318,潮阳,广东,23.2667,116.5833,5.90,69
59319,澄海,广东,23.4333,116.8333,4.10,89
59320,诏安,福建,23.7667,117.1333,18.10,72
59321,东山,福建,23.7833,117.50,53.30,83
59322,云霄,福建,23.9833,117.3667,22.80,70
59324,南澳,广东,23.4333,117.0333,7.20,68
59417,龙州,广西,22.3333,106.85,128.80,48
59419,凭祥,广西,22.10,106.75,242.50,53
59421,大新,广西,22.8333,107.20,255.10,51
59425,崇左,广西,22.40,107.35,107.50,49
59426,扶绥,广西,22.6333,107.90,89.70,52
59427,宁明,广西,22.1167,107.0667,163.30,54
59429,上思,广西,22.15,107.9667,180,48
59431,南宁,广西,22.6333,108.2167,121.60,55
59435,邕宁,广西,22.7667,108.4833,74.70,55
59441,横县,广西,22.70,109.25,78.50,51
59446,灵山,广西,22.4167,109.30,66.60,54
59448,浦北,广西,22.2667,109.55,69.60,46
59449,博白,广西,22.30,109.9833,85.90,50
59451,北流,广西,22.70,110.35,98.10,48
59452,容县,广西,22.8333,110.5333,131.50,45
59453,玉林,广西,22.6667,110.1167,121.60,44
59454,岑溪,广西,22.9167,111,99.40,47
59456,信宜,广东,22.35,110.9333,141.40,51
59457,陆川,广西,22.3167,110.2667,121.60,51
59462,罗定,广东,22.70,111.60,60,67
59469,阳春,广东,22.1667,111.7833,37.70,70
59470,新兴,广东,22.70,112.20,57.40,81
59471,云浮,广东,22.9333,112.05,101.80,81
59473,鹤山,广东,22.7667,112.9667,19.80,93
59475,开平,广东,22.40,112.65,27.70,84
59476,新会,广东,22.5333,113.0333,36.30,87
59477,恩平,广东,22.1833,112.30,25.10,87
59478,台山,广东,22.25,112.7833,32.70,86
59480,顺德,广东,22.85,113.25,21.40,86
59481,番禺,广东,22.9333,113.3167,12.30,83
59485,中山,广东,22.50,113.40,33.70,89
59487,斗门,广东,22.2333,113.30,23.40,94
59488,珠海,广东,22.2833,113.5667,51.50,88
59492,惠东,广东,22.9667,114.7333,47.40,68
59493,深圳,广东,22.5333,114,63,80
59500,海丰,广东,22.9667,115.3167,6.50,74
59501,汕尾,广东,22.80,115.3667,16.70,68
59502,陆丰,广东,22.95,115.65,5.60,71
59626,东兴,广西,21.5333,107.9667,21.90,59
59631,防城,广西,21.7833,108.35,32.40,64
59632,钦州,广西,21.95,108.6167,4.80,58
59635,防城港,广西,21.6167,108.35,31.30,75
59640,合浦,广西,21.6667,109.1833,5.50,58
59644,北海,广西,21.45,109.1333,12.80,57
59647,涠洲岛,广西,21.0333,109.10,55.20,76
59650,遂溪,广东,21.40,110.25,29.70,62
59653,高州,广东,21.9333,110.85,31.30,55
59654,廉江,广东,21.6333,110.30,29.30,53
59655,化州,广东,21.65,110.6167,32.20,62
59656,吴川,广东,21.40,110.8167,27.30,73
59658,湛江,广东,21.15,110.30,53.30,71
59659,茂名,广东,21.75,110.9167,33.30,58
59663,阳江,广东,21.8333,111.9667,89.90,76
59664,电白,广东,21.5333,110.9833,31.60,66
59673,上川岛,广东,21.7333,112.7667,21.50,85
59750,雷州,广东,20.9667,110.0667,33.30,73
59754,徐闻,广东,20.3333,110.1833,55.90,68
59757,琼山,海南,20,110.3667,9.90,79
59758,海口,海南,20,110.25,63.50,74
59838,东方,海南,19.10,108.6167,7.60,61
59842,临高,海南,19.90,109.6833,31.70,66
59843,澄迈,海南,19.7333,110,31.40,42
59845,儋州,海南,19.5167,109.5833,169,43
59847,昌江,海南,19.2667,109.05,98.10,42
59848,白沙,海南,19.2333,109.4333,215.60,41
59849,琼中,海南,19.0333,109.8333,250.90,47
59851,定安,海南,19.6667,110.3333,53.30,49
59854,屯昌,海南,19.3667,110.10,118.30,40
59855,琼海,海南,19.2333,110.4667,24,48
59856,文昌,海南,19.6167,110.75,21.70,55
59940,乐东,海南,18.75,109.1667,155,40
59941,五指山,海南,18.7667,109.5167,328.50,49
59945,保亭,海南,18.65,109.70,68.60,40
59948,三亚,海南,18.2167,109.5833,419.40,63
59951,万宁,海南,18.80,110.3333,39.90,54
59954,陵水,海南,18.55,110.0333,35.20,46
59981,西沙,海南,16.8333,112.3333,4.70,74
